737.2320,N,12703.2634,E,1,16,0.96,33.3,M,19.6,M,,*42
$GPGSA,A,3,20,13,15,05,18,195,29,193,23,02,24,194,1.60,0.9$GNGGA,131736.000,3737.2320,N,12703.2634,E,1,17,0.87,33.3,M,19.6,M,,*40
$GPGSA,A,3,$GNGGA,131737.000,3737.2320,N,127$GNGGA,131738.000,3737.2320,N,127“š’‚b12703.2634,E,0.02,0.00,27052$GNGGA,131740.000,3737.2320,N,127$GNGGA,131741.000,3737.2320,N,127$GNGGA,131742.000,3737.2320,N,127$GNGGA,131743.0002320,N,127ºšºr’š’‚b12703.2633,E,0.01,0.00,2$GNGGA,131745.000,3737.2320,N,127$GNGGA,131746.0$$ª$$$$3,1,11,67,52,017,41,83,51,294,30,82,45,215,35,68,41,294,40*6A
$GLGSV,3,2,11,77,28,099,,76,19,044,28,66,13,061,,78$GNGGA,131755.000,3737.2320,N,127‚rº‚RŠ²
$GNRMC,131755.000,A,3737.2320,N,12703.2633,E,0.02,0.00,270521,,,D*70
$GNVTG,0.00,T,,M,0.02,N$GNGGA,131756.000,3737.2320,N,12703.2633,E,2,18,0.70,33.3,M,19.6,M,,*45
$GPGSA,A,3,20,13,15,05,18,195,29,193,23,02,24Ò”E0.00,T,,M,0.01,N,0.03,K,D*24
$GNGGA,131757.000,3737.2320,N,12703.2632,E,2,18,0.70,33.3,M,19.6,M,,*45
$GPGSA,A,3,20,13,15,05,18,195,29,$GNGGA,131758.000,3737
$GNRMC,132206.000,A,3737.2296,N,12703.2625,E,0.01,206.68,270521,,,D*72
$GNVTG,206.68,T,,M,0.01,N,0.01,K,D*2C
$GNGGA,132207.000,3737.2296,N,12703.2625,E,2,18,0.69,33.5,M,19.6,M,,*42
$GPGSA,A,3,20,193,15,05,18,195,24,29,13,23,02,194,1.21,0.69,0.99*33
$GLGSA,A,3,76,82,68,78,67,83,,,,,,,1.21,0.69,0.99*13
$GNRMC,132207.000,A,3737.2296,N,12703.2625,E,0.02,206.68,270521,,,D*70
$GNVTG,206.68,T,,M,0.02,N,0.03,K,D*2D
$GNGGA,132208.000,3737.2296,N,12703.2625,E,2,18,0.69,33.5,M,19.6,M,,*4D
$GPGSA,A,3,20,193,15,05,18,195,24,29,13,23,02,194,1.21,0.69,0.99*33
$GLGSA,A,3,76,82,68,78,67,83,,,,,,,1.21,0.69,0.99*13
$GNRMC,132208.000,A,3737.2296,N,12703.2625,E,0.01,206.68,270521,,,D*7C
$GNVTG,206.68,T,,M,0.01,N,0.02,K,D*2F
$GNGGA,132209.000,3737.2296,N,12703.2625,E,2,19,0.64,33.5,M,19.6,M,,*40
$GPGSA,A,3,20,193,15,05,18,195,24,29,13,23,02,194,1.12,0.64,0.92*35
$GLGSA,A,3,76,82,68,78,67,83,,,,,,,1.12,0.64,0.92*15
$GPGSV,4,1,14,193,76,064,40,20,74,032,41,15,70,279,46,13,68,035,44*47
$GPGSV,4,2,14,05,59,073,41,50,46,179,33,18,39,311,41,24,25,185,31*70
$GPGSV,4,3,14,195,25,183,38,29,21,241,30,30,20,047,26,23,15,296,36*47
$GPGSV,4,4,14,194,14,154,35,02,13,156,38*4A
$GLGSV,3,1,11,67,51,020,41,83,51,290,27,82,43,213,37,68,42,297,41*6C
$GLGSV,3,2,11,77,29,097,,76,19,042,36,66,12,063,,78,09,149,38*6C
$GLGSV,3,3,11,84,08,337,,81,05,180,,69,02,266,*5C
$GNRMC,132209.000,A,3737.2296,N,12703.2625,E,0.01,206.68,270521,,,D*7D
$GNVTG,206.68,T,,M,0.01,N,0.02,K,D*2F
$GNGGA,132210.000,3737.2295,N,12703.2625,E,2,19,0.64,33.5,M,19.6,M,,*4B
$GPGSA,A,3,20,193,15,05,18,195,24,29,13,23,02,194,1.12,0.64,0.92*35
$GLGSA,A,3,76,82,68,78,67,83,,,,,,,1.12,0.64,0.92*15
$GNRMC,132210.002295,N,12703.2625,E,0.01,206.68,270521,,,D*76
$GNVTG,206.68,T,,M,0.01,N,0.01,K,D*2C
$GNGGA,132211.000,3737.2296,N,12703.2625,E,2,18,0.69,33.5,M,19.6,M,,*45
$GPGSA,A,3,20,193,15,05,18,195,24,29,13,23,02,194,1.20,0.69,0.99*32
$GLGSA,A,3,76,82,68,78,67,83,,,,,,,1.20,0.69,0.99*12
$GNRMC,132211.000,A,3737.2296,N,12703.2625,E,0.01,206.68,270521,,,D*74
$GNVTG,206.68,T,,M,0.01,N,0.02,K,D*2F
$GNGGA,132212.000,3737.2296,N,12703.2625,E,2,19,0.64,33.5,M,19.6,M,,*4A
$GPGSA,A,3,20,193,15,05,18,195,24,29,13,23,02,194,1.12,0.64,0.92*35
$GLGSA,A,3,76,82,68,78,67,83,,,,,,,1.12,0.64,0.92*15
$GNRMC,132212.000,A,3737.2296,N,12703.2625,E,0.01,206.68,270521,,,D*77
$GNVTG,206.68,T,,M,0.01,N,0.02,K,D*2F
$GNGGA,132213.000,3737.2296,N,12703.2625,E,2,18,0.69,33.5,M,19.6,M,,*47
$GPGSA,A,3,20,193,15,05,18,195,24,29,13,23,02,194,1.21,0.69,0.99*33
$GLGSA,A,3,76,82,68,78,67,83,,,,,,,1.21,0.69,0.99*13
$GNRMC,132213.000,A,3737.2296,N,12703.2625,E,0.02,206.68,270521,,,D*75
$GNVTG,206.68,T,,M,0.02,N,0.03,K,D*2D
$GNGGA,132214.000,3737.2296,N,12703.2626,E,2,19,0.64,33.5,M,19.6,M,,*4F
$GPGSA,A,3,20,193,15,05,18,195,24,29,13,23,02,194,1.12,0.64,0.92*35
$GLGSA,A,3,76,82,68,78,67,83,,,,,,,1.12,0.64,0.92*15
$GPGSV,4,1,14,193,76,064,40,20,74,032,41,15,70,279,45,13,68,035,44*44
$GPGSV,4,2,14,05,59,073,42,50,46,179,32,18,39,311,40,24,25,185,33*71
$GPGSV,4,3,14,195,25,183,38,29,21,241,36,30,20,047,25,23,15,296,36*42
$GPGSV,4,4,14,194,14,154,35,02,13,156,38*4A
$GLGSV,3,1,11,67,51,020,41,83,51,290,26,82,43,213,39,68,42,297,41*63
$GLGSV,3,2,11,77,29,097,,76,19,042,35,66,12,063,,78,09,149,40*60
$GLGSV,3,3,11,84,08,337,,81,05,180,,69,02,266,*5C
$GNRMC,132214.000,A,3737.2296,N,12703.2626,E,0.01,206.68,270521,,,D*72
$GNVTG,206.68,T,,M,0.01,N,0.03,K,D*2E
$GNGGA,132215.000,3737.2296,N,12703.2626,E,2,19,0.64,33.5,M,19.6,M,,*4E
$GPGSA,A,3,20,193,15,05,18,195,24,29,13,23,02,194,1.12,0.64,0.92*35
$GLGSA,A,3,76,82,68,78,67,83,,,,,,,1.12,0.64,0.92*15
$GNRMC,132215.000,A,3737.2296,N,12703.2626,E,0.00,206.68,270521,,,D*72
$GNVTG,206.68,T,,M,0.00,N,0.01,K,D*2D
$GNGGA,132216.000,3737.2296,N,12703.2626,E,2,18,0.69,33.5,M,19.6,M,,*41
$GPGSA,A,3,20,193,15,05,18,195,24,29,13,23,02,194,1.21,0.69,0.99*33
$GLGSA,A,3,76,82,68,78,67,83,,,,,,,1.21,0.69,0.99*13
$GNRMC,132216.000,A,3737.2296,N,12703.2626,E,0.02,206.68,270521,,,D*73
$GNVTG,206.68,T,,M,0.02,N,0.03,K,D*2D
$GNGGA,132217.000,3737.2296,N,12703.2626,E,2,18,0.69,33.5,M,19.6,M,,*40
$GPGSA,A,3,20,193,15,05,18,195,24,29,13,23,02,194,1.21,0.69,0.99*33
$GLGSA,A,3,76,82,68,78,67,83,,,,,,,1.21,0.69,0.99*13
$GNRMC,132217.000,A,3737.2296,N,12703.2626,E,0.01,206.68,270521,,,D*71
$GNVTG,206.68,T,,M,0.01,N,0.02,K,D*2F
$GNGGA,132218.000,3737.2296,N,12703.2626,E,2,19,0.64,33.5,M,19.6,M,,*43
$GPGSA,A,3,20,193,15,05,18,195,24,29,13,23,02,19²ºbÂšbbbbbbbŠrŠ’b‚r²¢b‚rÊ’RŠª
$GNRMC,132218.000,A,3737.2296,N,12703.2626,E,0.01,206.68,270521,,,D*7E
$GNVTG,206.68,T,,M,0.01,N,0.02,K,D*2F
$GNGGA,132219.000,3737.2296,N,12703.2626,E,2,18,0.69,33.5,M,19.6,M,,*4E
$GPGSA,A,3,20,193,15,05,18,195,24,29,13,23,02,194,1.21,0.69,0.99*33
$GLGSA,A,3,76,82,68,78,67,83,,,,,,,1.21,0.69,0.99*13
$GPGSV,4,1,14,193,76,064,40,20,74,032,42,15,70,279,45,13,68,035,43*40
$GPGSV,4,2,14,05,59,073,43,50,46,179,32,18,39,311,40,24,25,185,34*77
$GPGSV,4,3,14,195,25,183,38,29,21,241,38,30,20,047,27,23,15,296,36*4E
$GPGSV,4,4,14,194,14,154,35,02,13,156,38*4A
$GLGSV,3,1,11,67,51,020,41,83,51,290,25,82,43,213,38,68,42,297,42*62
$GLGSV,3,2,11,77,29,097,,76,19,042,36,66,12,063,,78,09,149,41*62
$GLGSV,3,3,11,84,08,337,,81,05,180,,69,02,266,*5C
$GNRMC,132219.000,A,3737.2296,N,12703.2626,E,0.01,206.68,270521,,,D*7F
$GNVTG,206.68,T,,M,0.01,N,0.01,K,D*2C
$GNGGA,132220.000,3737.2296,N,12703.2626,E,2,18,0.69,33.5,M,19.6,M,,*44
$GPGSA,A,3,20,193,15,05,18,195,24,29,13,23,0.69,0.99*33
$GLGSA,A,3,76,82,68,78,67,83,,,,,,,1.21,0.69,0.99*13
$GNRMC,132220.000,A,3737.2296,N,12703.2626,E,0.30,206.68,270521,,,D*77
$GNVTG,206.68,T,,M,0.30,N,0.55,K,D*2F
$GNGGA,132221.000,3737.2296,N,12703.2626,E,2,18,0.69,33.7,M,19.6,M,,*47
$GPGSA,A,3,20,193,15,05,18,195,24,29,13,23,02,194,1.21,0.69,0.99*33
$GLGSA,A,3,76,82,68,78,67,83,,,,,,,1.21,0.69,0.99*13
$GNRMC,132221.000,A,3737.2296,N,12703.2626,E,0.17,206.68,270521,,,D*73
$GNVTG,206.68,T,,M,0.17,N,0.31,K,D*28
$GNGGA,132222.000,3737.2296,N,12703.2626,E,2,18,0.69,33.9,M,19.6,M,,*4A
$GPGSA,A,3,20,193,15,05,18,195,24,29,13,23,02,194,1.21,0.69,0.99*33
$GLGSA,A,3,76,82,68,78,67,83,,,,,,,1.21,0.69,0.99*13
$GNRMC,132222.000,A,3737.2296,N,12703.2626,E,0.16,206.68,270521,,,D*71
$GNVTG,206.68,T,,M,0.16,N,0.29,K,D*20
$GNGGA,132223.000,3737.2296,N,12703.2626,E,2,18,0.69,33.9,M,19.6,M,,*4B
$GPGSA,A,3,20,193,15,05,18,195,24,29,13,23,02,194,1.21,0.69,0.99*33
$GLGSA,A,3,76,82,68,78,67,83,,,,,,,1.21,0.69,0.99*13
$GNRMC,132223.000,A,3737.2296,N,12703.2626,E,0.09,206.68,270521,,,D*7E
$GNVTG,206.68,T,,M,0.09,N,0.17,K,D*23
$GNGGA,132224.000,3737.2296,N,12703.2626,E,2,18,0.69,34.0,M,19.6,M,,*42
$GPGSA,A,3,20,193,15,05,18,195,24,29,13,23,02,194,1.21,0.69,0.99*33
$GLGSA,A,3,76,82,68,78,67,8,,,,,,,1.21,0.69,0.99*13
$GPGSV,4,1,14,193,76,064,40,20,74,032,42,15,70,279,46,13,68,035,42*42
$GPGSV,4,2,14,05,59,073,42,50,46,179,32,18,39,311,41,24,25,185,33*70
$GPGSV,4,3,14,195,25,183,38,29,21,241,38,30,20,047,29,23,15,296,36*40
$GPGSV,4,4,14,194,14,154,35,02,13,156,38*4A
$GLGSV,3,1,11,67,51,020,41,83,51,290,24,82,43,213,37,68,42,297,43*6D
$GLGSV,3,2,11,77,29,097,,76,19,042,38,66,12,063,,78,09,149,40*6D
$GLGSV,3,3,11,84,08,337,,81,05,180,,69,02,266,*5C
$GNRMC,132224.000,A,3737.2296,N,12703.2626,E,0.08,206.68,270521,,,D*78
$GNVTG,206.68,T,,M,0.08,N,0.16,K,D*23
$GNGGA,132225.000,3737.2296,N,12703.2626,E,2,19,0.64,34.1,M,19.6,M,,*4E
$GPGSA,A,3,20,193,15,05,18,195,24,29,13,23,02,194,1.12,0.64,0.92*35
$GLGSA,A,3,76,82,68,78,67,83,,,,,,,1.12,0.64,0.92*15
$GNRMC,132225.000,A,3737.2296,N,12703.2626,E,0.08,206.68,270521,,,D*79
$GNVTG,206.68,T,,M,0.08,N,0.14,K,D*21
$GNGGA,132226.000,3737.2295,N,12703.2626,E,2,19,0.64,34.2,M,19.6,M,,*4D
$GPGSA,A,3,20,193,15,05,18,195,24,29,13,23,02,194,1.12,0.64,0.92*35
$GLGSA,A,3,76,82,68,78,67,83,,,,,,,1.12,0.64,0.92*15
$GNRMC,132226.000,A,3737.2295,N,12703.2626,E,0.08,206.68,270521,,,D*79
$GNVTG,206.68,T,,M,0.08,N,0.14,K,D*21
$GNGGA,132227.000,3737.2295,N,12703.2626,E,2,18,0.69,34.3,M,19.6,M,,*41
$GPGSA,A,3,20,193,15,05,18,195,24,29,13,23,02,194,1.21,0.69,0.99*33
$GLGSA,A,3,76,82,68,78,67,83,,,,,,,1.21,0.69,0.99*13
$GNRMC,132227.000,A,3737.2295,N,12703.2626,E,0.07,206.68,270521,,,D*77
$GNVTG,206.68,T,,M,0.07,N,0.13,K,D*29
$GNGGA,132228.000,3737.2295,N,12703.2626,E,2,19,0.64,34.4,M,19.6,M,,*45
$GPGSA,A,3,20,193,15,05,18,195,24,29,13,23,02,194,1.12,0.64,0.92*35
$GLGSA,A,3,76,82,68,78,67,83,,,,,,,1.12,0.64,0.92*15
$GNRMC,132228.000,A,3737.2295,N,12703.2626,E,0.06,206.68,270521,,,D*79
$GNVTG,206.68,T,,M,0.06,N,0.12,K,D*29
$GNGGA,132229.000,3737.2295,N,12703.2626,E,2,19,0.64,34.4,M,19.6,M,,*44
$GPGSA,A,3,20,193,15,05,18,195,24,29,13,23,02,194,1.12,0.64,0.92*35
$GLGSA,A,3,76,82,68,78,67,83,,,,,,,1.12,0.64,0.92*15
$GPGSV,4,1,14,193,76,064,40,20,74,032,42,15,70,279,47,13,68,035,43*42
$GPGSV,4,2,14,05,59,073,42,50,46,179,31,18,39,311,41,24,25,185,34*74
$GPGSV,4,3,14,195,25,183,38,29,21,241,35,30,20,047,30,23,15,296,34*47
$GPGSV,4,4,14,194,14,154,36,02,13,156,39*48
$GLGSV,3,1,11,67,51,020,42,83,51,290,24,82,43,213,37,68,42,297,43*6E
$GLGSV,3,2,11,77,29,097,,76,19,042,37,66,12,063,,78,09,149,39*6C
$GLGSV,3,3,11,84,08,337,,81,05,180,,69,02,266,*5C
$GNRMC,132229.000,A,3737.2295,N,12703.2626,E,0.05,206.68,270521,,,D*7B
$GNVTG,206.68,T,,M,0.05,N,0.10,K,D*28
$GNGGA,132230.000,3737.2295,N,12703.2626,E,2,19,0.64,34.5,M,19.6,M,,*4D
$GPGSA,A,3,20,193,15,05,18,195,24,29,13,23,02,194,1.12,0.64,0.92*35
$GLGSA,A,3,76,82,68,78,67,83,,,,,,,1.12,0.64,0.92*15
$GNRMC,132230.000,A,3737.2295,N,12703.2626,E,0.08,206.68,270521,,,D*7E
$GNVTG,206.68,T,,M,0.08,N,0.15,K,D*20
$GNGGA,132231.000,3737.2295,N,12703.2626,E,2,19,0.64,34.5,M,19.6,M,,*4C
$GPGSA,A,3,20,193,15,05,18,195,24,29,13,23,02,194,1.12,0.64,0.92*35
$GLGSA,A,3,76,82,68,78,67,83,,,,,,,1.12,0.64,0.92*15
$GNRMC,132231.000,A,3737.2295,N,12703.2626,E,0.03,206.68,270521,,,D*74
$GNVTG,206.68,T,,M,0.03,N,0.05,K,D*2A
$GNGGA,132232.000,3737.2295,N,12703.2626,E,2,19,0.64,34.6,M,19.6,M,,*4C
$GPGSA,A,3,20,193,15,05,18,195,24,29,13,23,02,194,1.12,0.64,0.92*35
$GLGSA,A,3,76,82,68,78,67,83,,,,,,,1.12,0.64,0.92*15
$GNRMC,132232.000,A,3737.2295,N,12703.2626,E,0.01,206.68,270521,,,D*75
$GNVTG,206.68,T,,M,0.01,N,0.02,K,D*2F
$GNGGA,132233.000,3737.2295,N,12703.2626,E,2,19,0.64,34.5,M,19.6,M,,*4E
$GPGSA,A,3,20,193,15,05,18,195,24,29,13,23,02,194,1.12,0.64,0.92*35
$GLGSA,A,3,76,82,68,78,67,83,,,,,,,1.12,0.64,0.92*15
$GNRMC,132233.000,A,3737.2295,N,12703.2626,E,0.01,206.68,270521,,,D*74
$GNVTG,206.68,T,,M,0.01,N,0.02,K,D*2F
$GNGGA,132234.000,3737.2295,N,12703.2626,E,2,19,0.64,34.6,M,19.6,M,,*4A
$GPGSA,A,3,20,193,15,05,18,195,24,29,13,23,02,194,1.12,0.64,0.92*35
$GLGSA,A,3,76,82,68,78,67,83,,,,,,,1.12,0.64,0.92*15
$GPGSV,4,1,14,193,76,064,40,20,74,032,43,15,70,279,47,13,68,035,43*43
$GPGSV,4,2,14,05,59,073,43,50,46,179,32,18,39,311,41,24,25,185,34*76
$GPGSV,4,3,14,195,25,183,38,29,21,241,29,30,20,047,30,23,15,296,33*4D
$GPGSV,4,4,14,194,14,154,36,02,13,156,39*48
$GLGSV,3,1,11,67,51,020,43,83,51,290,26,82,43,213,39,68,42,297,42*62
$GLGSV,3,2,11,77,29,097,,76,19,042,36,66,12,063,,78,09,149,39*6D
$GLGSV,3,3,11,84,08,337,,81,05,180,,69,02,266,*5C
$GNRMC,132234.000,A,3737.2295,N,12703.2626,E,0.02,206.68,270521,,,D*70
$GNVTG,206.68,T,,M,0.02,N,0.05,K,D*2B
$GNGGA,132235.000,3737.2295,N,12703.2626,E,2,19,0.64,34.6,M,19.6,M,,*4B
$GPGSA,A,3,20,193,15,05,18,195,24,29,13,23,02,194,1.12,0.64,0.92*35
$GLGSA,A,3,76,82,68,78,67,83,,,,,,,1.12,0.64,0.92*15
$GNRMC,132235.000,A,3737.2295,N,12703.2626,E,0.04,206.68,270521,,,D*77
$GNVTG,206.68,T,,M,0.04,N,0.07,K,D*2F
$GNGGA,132236.000,3737.2295,N,12703.2626,E,2,19,0.64,34.6,M,19.6,M,,*48
$GPGSA,A,3,20,193,15,05,18,195,24,29,13,23,02,194,1.12,0.64,0.92*35
$GLGSA,A,3,76,82,68,78,67,83,,,,,,,1.12,0.64,0.92*15
$GNRMC,132236.000,A,3737.2295,N,12703.2626,E,0.02,206.68,270521,,,D*72
$GNVTG,206.68,T,,M,0.02,N,0.03,K,D*2D
$GNGGA,132237.000,3737.2295,N,12703.2626,E,2,19,0.64,34.6,M,19.6,M,,*49
$GPGSA,A,3,20,193,15,05,18,195,24,29,13,23,02,194,1.12,0.64,0.92*35
$GLGSA,A,3,76,82,68,78,67,83,,,,,,,1.12,0.64,0.92*15
$GNRMC,132237.000,A,3737.2295,N,12703.2626,E,0.02,206.68,270521,,,D*73
$GNVTG,206.68,T,,M,0.02,N,0.03,K,D*2D
$GNGGA,132238.000,3737.2295,N,12703.2626,E,2,19,0.64,34.6,M,19.6,M,,*46
$GPGSA,A,3,20,193,15,05,18,195,24,29,13,23,02,194,1.12,0.64,0.92*35
$GLGSA,A,3,76,82,68,78,67,83,,,,,,,1.12,0.64,0.92*15
$GNRMC,132238.000,A,3737.2295,N,12703.2626,E,0.02,206.68,270521,,,D*7C
$GNVTG,206.68,T,,M,0.02,N,0.03,K,D*2D
$GNGGA,132239.000,3737.2295,N,12703.2626,E,2,18,0.69,34.6,M,19.6,M,,*4B
$GPGSA,A,3,20,193,15,05,18,195,24,29,13,23,02,194,1.21,0.69,0.99*33
$GLGSA,A,3,76,82,68,78,67,83,,,,,,,1.21,0.69,0.99*13
$GPGSV,4,1,14,193,76,064,40,20,74,032,43,15,70,279,47,13,68,035,43*43
$GPGSV,4,2,14,05,59,073,43,50,46,179,32,18,39,311,41,24,25,185,31*73
$GPGSV,4,3,14,195,25,183,38,29,21,241,26,30,20,047,30,23,15,296,34*45
$GPGSV,4,4,14,194,14,154,35,02,13,156,38*4A
$GLGSV,3,1,11,67,51,020,42,83,51,290,26,82,43,213,39,68,42,297,43*62
$GLGSV,3,2,11,77,29,097,,76,19,042,36,66,12,063,,78,09,149,40*63
$GLGSV,3,3,11,84,08,337,,81,05,180,,69,02,266,*5C
$GNRMC,132239.000,A,3737.2295,N,12703.2626,E,0.02,206.68,270521,,,D*7D
$GNVTG,206.68,T,,M,0.02,N,0.03,K,D*2D
$GNGGA,132240.000,3737.2295,N,12703.2626,E,2,18,0.69,34.6,M,19.6,M,,*45
$GPGSA,A,3,20,193,15,05,18,195,24,29,13,23,02,194,1.21,0.69,0.99*33
$GLGSA,A,3,76,82,68,78,67,83,,,,,,,1.21,0.69,0.99*13
$GNRMC,132240.000,A,3737.2295,N,12703.2626,E,0.01,206.68,270521,,,D*70
$GNVTG,206.68,T,,M,0.01,N,0.02,K,D*2F
$GNGGA,132241.000,3737.2295,N,12703.2626,E,2,18,0.69,34.6,M,19.6,M,,*44
$GPGSA,A,3,20,193,15,05,18,195,24,29,13,23,02,194,1.21,0.69,0.99*33
$GLGSA,A,3,76,82,68,78,67,83,,,,,,,1.21,0.69,0.99*13
$GNRMC,132241.000,A,3737.2295,N,12703.2626,E,0.02,206.68,270521,,,D*72
$GNVTG,206.68,T,,M,0.02,N,0.03,K,D*2D
$GNGGA,132242.000,3737.2295,N,12703.2626,E,2,19,0.64,34.6,M,19.6,M,,*4B
$GPGSA,A,3,20,193,15,05,18,195,24,29,13,23,02,194,1.12,0.64,0.92*35
$GLGSA,A,3,76,82,68,78,67,83,,,,,,,1.12,0.64,0.92*15
$GNRMC,132242.000,A,3737.2295,N,12703.2626,E,0.01,206.68,270521,,,D*72
$GNVTG,206.68,T,,M,0.01,N,0.02,K,D*2F
$GNGGA,132243.000,3737.2295,N,12703.2626,E,2,18,0.69,34.6,M,19.6,M,,*46
$GPGSA,A,3,20,193,15,05,18,195,24,29,13,23,02,194,1.21,0.69,0.99*33
$GLGSA,A,3,76,82,68,78,67,83,,,,,,,1.21,0.69,0.99*13
$GNRMC,132243.000,A,3737.2295,N,12703.2626,E,0.00,206.68,270521,,,D*72
$GNVTG,206.68,T,,M,0.00,N,0.01,K,D*2D
$GNGGA,132244.000,3737.2295,N,12703.2626,E,2,19,0.64,34.6,M,19.6,M,,*4D
$GPGSA,A,3,20,193,15,05,18,195,24,29,13,23,02,194,1.12,0.64,0.92*35
$GLGSA,A,3,76,82,68,78,67,83,,,,,,,1.12,0.64,0.92*15
$GPGSV,4,1,14,193,76,064,40,20,74,032,44,15,70,279,47,13,68,035,43*44
$GPGSV,4,2,14,05,59,073,43,50,46,179,33,18,39,311,41,24,25,185,30*73
$GPGSV,4,3,14,195,25,183,38,29,21,241,31,30,20,047,31,23,15,296,32*44
$GPGSV,4,4,14,194,14,154,34,02,13,157,38*4A
$GLGSV,3,1,11,67,51,020,41,83,51,290,25,82,43,213,37,68,42,297,44*6B
$GLGSV,3,2,11,77,29,097,,76,19,042,36,66,12,063,,78,09,149,40*63
$GLGSV,3,3,11,84,08,337,,81,05,180,,69,02,266,*5C
$GNRMC,132244.000,A,3737.2295,N,12703.2626,E,0.02,206.68,270521,,,D*77
$GNVTG,206.68,T,,M,0.02,N,0.03,K,D*2D
$GNGGA,132245.000,3737.2295,N,12703.2626,E,2,18,0.69,34.6,M,19.6,M,,*40
$GPGSA,A,3,20,193,15,05,18,195,24,29,13,23,02,194,1.21,0.69,0.99*33
$GLGSA,A,3,76,82,68,78,6,,,,1.21,0.69,0.99*13
$GNRMC,132245.000,A,3737.2295,N,12703.2626,E,0.02,206.68,270521,,,D*76
$GNVTG,206.68,T,,M,0.02,N,0.03,K,D*2D
$GNGGA,132246.000,3737.2294,N,12703.2626,E,2,19,0.64,34.6,M,19.6,M,,*4E
$GPGSA,A,3,20,193,15,05,18,195,24,29,13,23,02,194,1.12,0.64,0.92*35
$GLGSA,A,3,76,82,68,78,67,83,,,,,,,1.12,0.64,0.92*15
$GNRMC,132246.000,A,3737.2294,N,12703.2626,E,0.02,206.68,270521,,,D*74
$GNVTG,206.68,T,,M,0.02,N,0.04,K,D*2A
$GNGGA,132247.000,3737.2294,N,12703.2626,E,2,19,0.64,34.6,M,19.6,M,,*4F
$GPGSA,A,3,20,193,15,05,18,195,24,29,13,23,02,194,1.12,GSA,A,3,76,82,68,78,67,83,,,,,,,1.12,0.64,0.92*15
$GNRMC,132247.000,A,3737.2294,N,12703.2626,E,0.02,206.68,270521,,,D*75
$GNVTG,206.68,T,,M,0.02,N,0.04,K,D*2A
$GNGGA,132248.000,3737.2294,N,12703.2626,E,2,19,0.64,34.6,M,19.6,M,,*40
$GPGSA,A,3,20,193,15,05,18,195,24,29,13,23,02,194,1.12,0.64,0.92*35
$GLGSA,A,3,76,82,68,78,67,83,,,,,,,1.12,0.64,0.92*15
$GNRMC,132248.000,A,3737.2294,N,12703.2626,E,0.03,206.68,270521,,,D*7B
$GNVTG,206.68,T,,M,0.03,N,0.05,K,D*2A
$GNGGA,132249.000,3737.2294,N,12703.2627,E,2,19,0.64,34.6,M,19.6,M,,*40
$GPGSA,A,3,20,193,15,05,18,195,24,29,13,23,02,194,1.12,0.64,0.92*35
$GLGSA,A,3,76,82,68,78,67,83,,,,,,,1.12,0.64,0.92*15
$GPGSV,4,1,14,193,76,064,40,20,74,032,44,15,70,279,46,13,68,035,42*44
$GPGSV,4,2,14,05,58,074,43,50,46,179,33,18,39,311,41,24,25,185,32*77
$GPGSV,4,3,14,195,25,183,37,29,21,241,35,30,20,047,31,23,15,296,31*4C
$GPGSV,4,4,14,194,14,154,34,02,13,157,39*4B
$GLGSV,3,1,11,67,51,020,41,83,51,290,25,82,43,213,36,68,42,297,44*6A
$GLGSV,3,2,11,77,29,097,,76,19,042,31,66,12,063,,78,09,149,40*64
$GLGSV,3,3,11,84,08,337,,81,05,180,,69,02,266,*5C
$GNRMC,132249.000,A,3737.2294,N,12703.2627,E,0.03,206.68,270521,,,D*7B
$GNVTG,206.68$GNGGA,132250.000,3737.2294,N,12703.2627,E,2,19,0.64,34.6,M,19.6,M,,*48
$GPGSA,A,3,20,193,15,05,18,195,24,29,13,23,02,194rÊ’RŠª
$GNRMC,132250.000,A,3737.2294,N,12703.2627,E,0.01,206.68,270521,,,D*71
$GNVTG,206.68,T,,M,0.01,N,0.03,K,D*2E
$GNGGA,132251.000,3737.2294,N,12703.2627,E,2,19,0.64,34.6,M,19.6,M,,*49
$GPGSA,A,3,20,193,15,05,18,195,24,29,13,23,02,194,1.12,0.64,0.92*35
$GLGSA,A,3,76,82,68,78,67,83,,,,,,,1.12,0.64,0.92*15
$GNRMC,132251.000,A,3737.2294,N,12703.2627,E,0.00,206.68,270521,,,D*71
$GNVTG,206.68,T,,M,0.00,N,0.01,K,D*2D
$GNGGA,132252.000,3737.2294,N,12703.2627,E,2,19,0.64,34.6,M,19.6,M,,*4A
$GPGSA,A,3,20,193,15,05,18,195,24,29,13,23,02,194,1.12,0.64,0.92*35
$GLGSA,A,3,76,82,68,78,67,83,,,,,,,1.12,0.64,0.92*15
$GNRMC,132252.000,A,3737.2294,N,12703.2627,E,0.01,206.68,270521,,,D*73
$GNVTG,206.68,T,,M,0.01,N,0.01,K,D*2C
$GNGGA,132253.000,3737.2294,N,12703.2627,E,2,19,0.64,34.6,M,19.6,M,,*4B
$GPGSA,A,3,20,193,15,05,18,195,24,29,13,23,02,194,1.12,0.64,0.92*35
$GLGSA,A,3,76,82,68,78,67,83,,,,,,,1.12,0.64,0.92*15
$GNRMC,132253.000,A,3737.2294,N,12703.2627,E,0.01,206.68,270521,,,D*72
$GNVTG,206.68,T,,M,0.01,N,0.02,K,D*2F
$GNGGA,132254.000,3737.2294,N,12703.2627,E,2,19,0.64,34.6,M,19.6,M,,*4C
$GPGSA,A,3,20,193,15,05,18,195,24,29,13,23,02,194,1.12,0.64,0.92*35
$GLGSA,A,3,76,82,68,78,67,83,,,,,,,1.12,0.64,0.92*15
$GPGSV,4,1,14,193,76,064,40,20,74,032,44,15,70,279,46,13,68,035,43*45
$GPGSV,4,2,14,05,58,074,43,50,46,179,33,18,39,311,41,24,25,185,34*71
$GPGSV,4,3,14,195,25,183,38,29,21,241,34,30,20,047,31,23,15,296,30*43
$GPGSV,4,4,14,194,14,154,31,02,13,157,39*4E
$GLGSV,3,1,11,67,51,020,42,83,51,290,25,82,43,213,39,68,42,297,44*66
$GLGSV,3,2,11,77,29,097,,76,19,042,26,66,12,063,,78,09,149,41*63
$GLGSV,3,3,11,84,08,337,,81,05,180,,69,02,266,*5C
$GNRMC,132254.000,A,3737.2294,N,12703.2627,E,0.01,206.68,270521,,,D*75
$GNVTG,206.68,T,,M,0.01,N,0.02,K,D*2F
$GNGGA,132255.000,3737.2294,N,12703.2627,E,2,19,0.64,34.6,M,19.6,M,,*4D
$GPGSA,A,3,20,193,15,05,18,195,24,29,13,23,02,194,1.12,0.64,0.92*35
$GLGSA,A,3,76,82,68,78,67,83,,,,,,,1.12,0.64,0.92*15
$GNRMC,132255.000,A,3737.2294,N,12703.2627,E,0.01,206.68,270521,,,D*74
$GNVTG,206.68,T,,M,0.01,N,0.01,K,D*2C
$GNGGA,132256.000,3737.2294,N,12703.2627,E,2,19,0.62,34.5,M,19.6,M,,*4B
$GPGSA,A,3,20,193,15,05,18,195,24,29,13,23,02,194,0.92,0.62,0.68*3F
$GLGSA,A,3,76,82,68,78,67,83,,,,,,,0.92,0.62,0.68*1F
$GNRMC,132256.000,A,3737.2294,N,12703.2627,E,0.03,206.68,270521,,,D*75
$GNVTG,206.68,T,,M,0.03,N,0.06,K,D*29
$GNGGA,132257.000,3737.2294,N,12703.2627,E,2,19,0.64,34.5,M,19.6,M,,*4C
$GPGSA,A,3,20,193,15,05,18,195,24,29,13,23,02,194,1.12,0.64,0.92*35
$GLGSA,A,3,76,82,68,78,67,83,,,,,,,1.12,0.64,0.92*15
$GNRMC,132257.000,A,3737.2294,N,12703.2627,E,0.04,206.68,270521,,,D*73
$GNVTG,206.68,T,,M,0.04,N,0.07,K,D*2F
$GNGGA,132258.000,3737.2294,N,12703.2627,E,2,19,0.64,34.5,M,19.6,M,,*43
$GPGSA,A,3,20,193,15,05,18,195,24,29,13,23,02,194,1.12,0.64,0.92*35
$GLGSA,A,3,76,82,68,78,67,83,,,,,,,1.12,0.64,0.92*15
$GNRMC,132258.000,A,3737.2294,N,12703.2627,E,0.04,206.68,270521,,,D*7C
$GNVTG,206.68,T,,M,0.04,N,0.07,K,D*2F
$GNGGA,132259.000,3737.2294,N,12703.2627,E,2,18,0.65,34.5,M,19.6,M,,*42
$GPGSA,A,3,20,193,15,05,18,195,24,29,13,23,02,194,1.13,0.65,0.93*34
$GLGSA,A,3,76,82,68,78,67,,,,,,,,1.13,0.65,0.93*1F
$GPGSV,4,1,14,193,76,064,40,20,74,032,44,15,70,281,46,13,67,035,44*4A
$GPGSV,4,2,14,05,58,074,44,50,46,179,33,18,39,311,41,24,25,185,35*77
$GPGSV,4,3,14,195,25,183,37,29,21,241,31,30,20,047,30,23,15,296,31*49
$GPGSV,4,4,14,194,14,154,30,02,13,157,40*41
$GLGSV,3,1,11,67,51,020,42,83,51,290,24,82,43,213,39,68,42,297,42*61
$GLGSV,3,2,11,77,29,097,,76,19,042,26,66,12,063,,78,09,149,41*63
$GLGSV,3,3,11,84,08,337,,81,05,180,,69,02,266,*5C
$GNRMC,132259.000,A,3737.2294,N,12703.2627,E,0.03,206.68,270521,,,D*7A
$GNVTG,206.68,T,,M,0.03,N,0.05,K,D*2A
$GNGGA,132300.000,3737.2294,N,12703.2627,E,2,19,0.64,34.5,M,19.6,M,,*4F
$GPGSA,A,3,20,193,15,05,18,195,24,29,13,23,02,194,1.12,0.64,0.92*35
$GLGSA,A,3,76,82,68,78,67,83,,,,,,,1.12,0.64,0.92*15
$GNRMC,132300.000,A,3737.2294,N,12703.2627,E,0.09,206.68,270521,,,D*7D
$GNVTG,206.68,T,,M,0.09,N,0.16,K,D*22
$GNGGA,132301.000,3737.2294,N,12703.2627,E,2,19,0.64,34.5,M,19.6,M,,*4E
$GPGSA,A,3,20,193,15,05,18,195,24,29,13,23,02,194,1.12,0.64,0.92*35
$GLGSA,A,3,76,82,68,78,67,83,,,,,,,1.12,0.64,0.92*15
$GNRMC,132301.000,A,3737.2294,N,12703.2627,E,0.01,206.68,270521,,,D*74
$GNVTG,206.68,T,,M,0.01,N,0.01,K,D*2C
$GNGGA,132302.000,3737.2294,N,12703.2627,E,2,19,0.62,34.5,M,19.6,M,,*4B
$GPGSA,A,3,20,193,15,05,18,195,24,29,13,23,02,194,0.92,0.62,0.68*3F
$GLGSA,A,3,76,82,68,78,67,83,,,,,,,0.92,0.62,0.68*1F
$GNRMC,132302.000,A,3737.2294,N,12703.2627,E,0.05,206.68,270521,,,D*73
$GNVTG,206.68,T,,M,0.05,N,0.09,K,D*20
$GNGGA,132303.000,3737.2294,N,12703.2627,E,2,18,0.70,34.5,M,19.6,M,,*48
$GPGSA,A,3,20,193,15,05,18,195,24,29,13,23,02,194,1.22,0.70,1.00*39
$GLGSA,A,3,82,68,78,67,83,,,,,,,,1.22,0.70,1.00*18
$GNRMC,132303.000,A,3737.2294,N,12703.2627,E,0.03,206.68,270521,,,D*74
$GNVTG,206.68,T,,M,0.03,N,0.05,K,D*2A
$GNGGA,132304.000,3737.2294,N,12703.2627,E,2,18,0.70,34.5,M,19.6,M,,*4F
$GPGSA,A,3,20,193,15,05,18,195,24,29,13,23,02,194,1.22,0.70,1.00*39
$GLGSA,A,3,82,68,78,67,83,,,,,,,,1.22,0.70,1.00*18
$GPGSV,4,1,14,193,76,064,40,20,74,035,44,15,70,281,46,13,67,035,45*4C
$GPGSV,4,2,14,05,58,074,44,50,46,179,34,18,39,310,42,24,25,185,35*72
$GPGSV,4,3,14,195,25,183,38,29,21,241,23,30,20,047,30,23,15,296,30*44
$GPGSV,4,4,14,194,14,154,29,02,13,157,41*48
$GLGSV,3,1,11,67,51,020,42,83,51,290,25,82,43,213,39,68,42,297,42*60
$GLGSV,3,2,11,77,29,097,,76,19,042,15,66,12,063,,78,09,149,41*63
$GLGSV,3,3,11,84,08,337,,81,05,180,,69,02,266,*5C
$GNRMC,132304.000,A,3737.2294,N,12703.2627,E,0.01,206.68,270521,,,D*71
$GNVTG,206.68,T,,M,0.01,N,0.03,K,D*2E
$GNGGA,132305.000,3737.2294,N,12703.2627,E,2,18,0.67,34.5,M,19.6,M,,*48
$GPGSA,A,3,20,193,15,05,18,195,24,29,13,23,02,194,0.98,0.67,0.71*38
$GLGSA,A,3,82,68,78,67,83,,,,,,,,0.98,0.67,0.71*19
$GNRMC,132305.000,A,3737.2294,N,12703.2627,E,0.01,206.68,270521,,,D*70
$GNVTG,206.68,T,,M,0.01,N,0.01,K,D*2C
$GNGGA,132306.000,3737.2294,N,12703.2627,E,2,18,0.70,34.5,M,19.6,M,,*4D
$GPGSA,A,3,20,193,15,05,18,195,24,29,13,23,02,194,1.22,0.70,1.00*39
$GLGSA,A,3,82,68,78,67,83,,,,,,,,1.22,0.70,1.00*18
$GNRMC,132306.000,A,3737.2294,N,12703.2627,E,0.01,206.68,270521,,,D*73
$GNVTG,206.68,T,,M,0.01,N,0.02,K,D*2F
$GNGGA,132307.000,3737.2294,N,12703.2627,E,2,18,0.70,34.5,M,19.6,M,,*4C
$GPGSA,A,3,20,193,15,05,18,195,24,29,13,23,02,194,1.22,0.70,1.00*39
$GLGSA,A,3,82,68,78,67,83,,,,,,,,1.22,0.70,1.00*18
$GNRMC,132307.000,A,3737.2294,N,12703.2627,E,0.01,206.68,270521,,,D*72
$GNVTG,206.68,T,,M,0.01,N,0.02,K,D*2F
$GNGGA,132308.000,3737.2294,N,12703.2627,E,2,18,0.70,34.5,M,19.6,M,,*43
$GPGSA,A,3,20,193,15,05,18,195,24,29,13,23,02,194,1.22,0.70,1.00*39
$GLGSA,A,3,82,68,78,67,83,,,,,,,,1.22,0.70,1.00*18
$GNRMC,132308.000,A,3737.2294,N,12703.2627,E,0.01,206.68,270521,,,D*7D
$GNVTG,206.68,T,,M,0.01,N,0.01,K,D*2C
$GNGGA,132309.000,3737.2294,N,12703.2627,E,2,18,0.65,34.5,M,19.6,M,,*46
$GPGSA,A,3,20,193,15,05,18,195,24,29,13,23,02,30,1.14,0.65,0.93*0C
$GLGSA,A,3,76,82,68,78,67,83,,,,,,,1.14,0.65,0.93*13
$GPGSV,4,1,14,193,76,064,40,20,74,035,44,15,70,281,46,13,67,035,44*4D
$GPGSV,4,2,14,05,58,074,42,50,46,179,33,18,39,310,41,24,26,185,34*72
$GPGSV,4,3,14,195,25,183,37,29,21,241,25,30,20,047,30,23,15,297,30*4C
$GPGSV,4,4,14,194,14,154,29,02,13,157,41*48
$GLGSV,3,1,11,67,51,020,42,83,51,290,24,82,43,213,39,68,42,297,42*61
$GLGSV,3,2,11,77,29,097,,76,19,042,28,66,12,063,,78,09,149,41*6D
$GLGSV,3,3,11,84,08,337,,81,05,180,,69,02,266,*5C
$GNRMC,132309.000,A,3737.2294,N,12703.2627,E,0.10,206.68,270521,,,D*7C
$GNVTG,206.68,T,,M,0.10,N,0.18,K,D*24
$GNGGA,132310.000,3737.2294,N,12703.2627,E,2,19,0.70,34.5,M,19.6,M,,*4B
$GPGSA,A,3,20,193,15,05,18,195,24,29,13,23,02,194,1.22,0.70,1.00*39
$GLGSA,A,3,76,82,68,78,67,83,,,,,,,1.22,0.70,1.00*19
$GNRMC,132310.000,A,3737.2294,N,12703.2627,E,0.01,206.68,270521,,,D*74
$GNVTG,206.68,T,,M,0.01,N,0.02,K,D*2F
$GNGGA,132311.000,3737.2294,N,12703.2627,E,2,19,0.70,34.5,M,19.6,M,,*4A
$GPGSA,A,3,20,193,15,05,18,195,24,29,13,23,02,194,1.22,0.70,1.00*39
$GLGSA,A,3,76,82,68,78,67,83,,,,,,,1.22,0.70,1.00*19
$GNRMC,132311.000,A,3737.2294,N,12703.2627,E,0.03,206.68,270521,,,D*77
$GNVTG,206.68,T,,M,0.03,N,0.06,K,D*29
$GNGGA,132312.000,3737.2295,N,12703.2627,E,2,18,0.86,34.5,M,19.6,M,,*40
$GPGSA,A,3,20,193,15,05,18,195,24,29,13,23,02,194,1.49,0.86,1.22*3D
$GLGSA,A,3,76,82,68,78,67,83,,,,,,,1.49,0.86,1.22*1D
$GNRMC,132312.000,A,3737.2295,N,12703.2627,E,0.01,206.68,270521,,,D*77
$GNVTG,206.68,T,,M,0.01,N,0.02,K,D*2F
$GNGGA,132313.000,3737.2294,N,12703.2627,E,2,18,0.86,34.5,M,19.6,M,,*40
$GPGSA,A,3,20,193,15,05,18,195,24,29,13,23,02,194,1.49,0.86,1.22*3D
$GLGSA,A,3,76,82,68,78,67,83,,,,,,,1.49,0.86,1.22*1D
$GNRMC,132313.000,A,3737.2294,N,12703.2627,E,0.01,206.68,270521,,,D*77
$GNVTG,206.68,T,,M,0.01,N,0.03,K,D*2E
$GNGGA,132314.000,3737.2295,N,12703.2627,E,2,19,0.70,34.4,M,19.6,M,,*4F
$GPGSA,A,3,20,193,15,05,18,195,24,29,13,23,02,194,1.22,0.70,1.00*39
$GLGSA,A,3,76,82,68,78,67,83,,,,,,,1.22,0.70,1.00*19
$GPGSV,4,1,14,193,76,064,40,20,74,035,44,15,70,281,46,13,67,035,44*4D
$GPGSV,4,2,14,05,58,074,42,50,46,179,33,18,39,310,41,24,26,185,35*73
$GPGSV,4,3,14,195,25,183,37,29,21,241,29,30,20,046,29,23,15,297,31*48
$GPGSV,4,4,14,194,14,154,28,02,13,157,40*48
$GLGSV,3,1,11,67,51,020,41,83,51,290,23,82,43,213,38,68,42,297,41*67
$GLGSV,3,2,11,77,29,097,,76,19,042,25,66,12,063,,78,09,149,41*60
$GLGSV,3,3,11,84,08,337,,81,05,180,,69,02,266,*5C
$GNRMC,132314.000,A,3737.2295,N,12703.2627,E,0.01,206.68,270521,,,D*71
$GNVTG,206.68,T,,M,0.01,N,0.02,K,D*2F
$GNGGA,132315.000,3737.2295,N,12703.2627,E,2,18,0.86,34.4,M,19.6,M,,*46
$GPGSA,A,3,20,193,15,05,18,195,24,29,13,23,02,194,1.49,0.86,1.22*3D
$GLGSA,A,3,76,82,68,78,67,83,,,,,,,1.49,0.86,1.22*1D
$GNRMC,132315.000,A,3737.2295,N,12703.2627,E,0.01,206.68,270521,,,D*70
$GNVTG,206.68,T,,M,0.01,N,0.02,K,D*2F
$GNGGA,132316.000,3737.2295,N,12703.2627,E,2,18,0.86,34.4,M,19.6,M,,*45
$GPGSA,A,3,20,193,15,05,18,195,24,29,13,23,02,194,1.49,0.86,1.22*3D
$GLGSA,A,3,76,82,68,78,67,83,,,,,,,1.49,0.86,1.22*1D
$GNRMC,132316.000,A,3737.2295,N,12703.2627,E,0.01,206.68,270521,,,D*73
$GNVTG,206.68,T,,M,0.01,N,0.02,K,D*2F
$GNGGA,132317.000,3737.2295,N,12703.2627,E,2,19,0.70,34.4,M,19.6,M,,*4C
$GPGSA,A,3,20,193,15,05,18,195,24,29,13,23,02,194,1.22,0.70,1.00*39
$GLGSA,A,3,76,82,68,78,67,83,,,,,,,1.22,0.70,1.00*19
$GNRMC,132317.000,A,3737.2295,N,12703.2627,E,0.00,206.68,270521,,,D*73
$GNVTG,206.68,T,,M,0.00,N,0.01,K,D*2D
$GNGGA,132318.000,3737.2295,N,12703.2627,E,2,19,0.70,34.4,M,19.6,M,,*43
$GPGSA,A,3,20,193,15,05,18,195,24,29,13,23,02,194,1.22,0.70,1.00*39
$GLGSA,A,3,76,82,68,78,67,83,,,,,,,1.22,0.70,1.00*19
$GNRMC,132318.000,A,3737.2295,N,12703.2627,E,0.00,206.68,270521,,,D*7C
$GNVTG,206.68,T,,M,0.00,N,0.01,K,D*2D
$GNGGA,132319.000,3737.2295,N,12703.2627,E,2,19,0.70,34.4,M,19.6,M,,*42
$GPGSA,A,3,20,193,15,05,18,195,24,29,13,23,02,194,1.22,0.70,1.00*39
$GLGSA,A,3,76,82,68,78,67,83,,,,,,,1.22,0.70,1.00*19
$GPGSV,4,1,14,193,76,064,40,20,74,035,45,15,70,281,47,13,67,035,45*4C
$GPGSV,4,2,14,05,58,074,42,50,46,179,33,18,39,310,41,24,26,185,34*72
$GPGSV,4,3,14,195,25,183,37,29,21,241,29,30,20,046,29,23,15,297,32*4B
$GPGSV,4,4,14,194,14,154,29,02,13,157,40*49
$GLGSV,3,1,11,67,51,020,41,83,51,290,24,82,43,213,39,68,42,297,41*61
$GLGSV,3,2,11,77,29,097,,76,19,042,24,66,12,063,,78,09,149,41*61
$GLGSV,3,3,11,84,08,337,,81,05,180,,69,02,266,*5C
$GNRMC,132319.000,A,3737.2295,N,12703.2627,E,0.02,206.68,270521,,,D*7F
$GNVTG,206.68,T,,M,0.02,N,0.04,K,D*2A
$GNGGA,132320.000,3737.2295,N,12703.2627,E,2,19,0.70,34.4,M,19.6,M,,*48
$GPGSA,A,3,20,193,15,05,18,195,24,29,13,23,02,194,1.22,0.70,1.00*39
$GLGSA,A,3,76,82,68,78,67,83,,,,,,,1.22,0.70,1.00*19
$GNRMC,132320.000,A,3737.2295,N,12703.2627,E,0.01,206.68,270521,,,D*76
$GNVTG,206.68,T,,M,0.01,N,0.01,K,D*2C
$GNGGA,132321.000,3737.2295,N,12703.2627,E,2,18,0.70,34.4,M,19.6,M,,*48
$GPGSA,A,3,20,193,15,05,18,195,24,29,13,23,02,194,1.22,0.70,1.00*39
$GLGSA,A,3,82,68,78,67,83,,,,,,,,1.22,0.70,1.00*18
$GNRMC,132321.000,A,3737.2295,N,12703.2627,E,0.01,206.68,270521,,,D*77
$GNVTG,206.68,T,,M,0.01,N,0.02,K,D*2F
$GNGGA,132322.000,3737.2295,N,12703.2627,E,2,18,0.70,34.4,M,19.6,M,,*4B
$GPGSA,A,3,20,193,15,05,18,195,24,29,13,23,02,194,1.22,0.70,1.00*39
$GLGSA,A,3,82,68,78,67,83,,,,,,,,1.22,0.70,1.00*18
$GNRMC,132322.000,A,3737.2295,N,12703.2627,E,0.01,206.68,270521,,,D*74
$GNVTG,206.68,T,,M,0.01,N,0.02,K,D*2F
$GNGGA,132323.000,3737.2295,N,12703.2627,E,2,18,0.70,34.4,M,19.6,M,,*4A
$GPGSA,A,3,20,193,15,05,18,195,24,29,13,23,02,194,1.22,0.70,1.00*39
$GLGSA,A,3,82,68,78,67,83,,,,,,,,1.22,0.70,1.00*18
$GNRMC,132323.000,A,3737.2295,N,12703.2627,E,0.00,206.68,270521,,,D*74
$GNVTG,206.68,T,,M,0.00,N,0.00,K,D*2C
$GNGGA,132324.000,3737.2295,N,12703.2627,E,2,18,0.70,34.3,M,19.6,M,,*4A
$GPGSA,A,3,20,193,15,05,18,195,24,29,13,23,02,194,1.22,0.70,1.00*39
$GLGSA,A,3,82,68,78,67,83,,,,,,,,1.22,0.70,1.00*18
$GPGSV,4,1,14,193,76,064,40,20,74,035,45,15,70,281,47,13,67,035,45*4C
$GPGSV,4,2,14,05,58,074,41,50,46,179,32,18,39,310,41,24,26,185,34*70
$GPGSV,4,3,14,195,25,183,38,29,21,241,19,30,20,046,29,23,15,297,32*47
$GPGSV,4,4,14,194,14,154,30,02,13,157,38*4E
$GLGSV,3,1,11,67,51,020,41,83,51,290,23,82,43,213,38,68,42,297,42*64
$GLGSV,3,2,11,77,29,097,,76,19,042,14,66,12,063,,78,09,149,41*62
$GLGSV,3,3,11,84,08,337,,81,05,180,,69,02,266,*5C
$GNRMC,132324.000,A,3737.2295,N,12703.2627,E,0.01,206.68,270521,,,D*72
$GNVTG,206.68,T,,M,0.01,N,0.02,K,D*2F
$GNGGA,132325.000,3737.2295,N,12703.2627,E,2,18,0.70,34.3,M,19.6,M,,*4B
$GPGSA,A,3,20,193,15,05,18,195,24,29,13,23,02,194,1.22,0.70,1.01*38
$GLGSA,A,3,82,68,78,67,83,,,,,,,,1.22,0.70,1.01*19
$GNRMC,132325.000,A,3737.2295,N,12703.2627,E,0.00,206.68,270521,,,D*72
$GNVTG,206.68,T,,M,0.00,N,0.00,K,D*2C
$GNGGA,132326.000,3737.2295,N,12703.2627,E,2,18,0.70,34.3,M,19.6,M,,*48
$GPGSA,A,3,20,193,15,05,18,195,24,29,13,23,02,194,1.22,0.70,1.00*39
$GLGSA,A,3,82,68,78,67,83,,,,,,,,1.22,0.70,1.00*18
$GNRMC,132326.000,A,3737.2295,N,12703.2627,E,0.00,206.68,270521,,,D*71
$GNVTG,206.68,T,,M,0.00,N,0.00,K,D*2C
$GNGGA,132327.000,3737.2295,N,12703.2627,E,2,18,0.70,34.3,M,19.6,M,,*49
$GPGSA,A,3,20,193,15,05,18,195,24,29,13,23,02,194,1.22,0.70,1.01*38
$GLGSA,A,3,82,68,78,67,83,,,,,,,,1.22,0.70,1.01*19
$GNRMC,132327.000,A,3737.2295,N,12703.2627,E,0.01,206.68,270521,,,D*71
$GNVTG,206.68,T,,M,0.01,N,0.02,K,D*2F
$GNGGA,132328.000,3737.2295,N,12703.2627,E,2,18,0.70,34.3,M,19.6,M,,*46
$GPGSA,A,3,20,193,15,05,18,195,24,29,13,23,02,194,1.22,0.70,1.00*39
$GLGSA,A,3,82,68,78,67,83,,,,,,,,1.22,0.70,1.00*18
$GNRMC,132328.000,A,3737.2295,N,12703.2627,E,0.01,206.68,270521,,,D*7E
$GNVTG,206.68,T,,M,0.01,N,0.01,K,D*2C
$GNGGA,132329.000,3737.2295,N,12703.2627,E,2,18,0.70,34.3,M,19.6,M,,*47
$GPGSA,A,3,20,193,15,05,18,195,24,29,13,23,02,194,1.22,0.70,1.01*38
$GLGSA,A,3,82,68,78,67,83,,,,,,,,1.22,0.70,1.01*19
$GPGSV,4,1,14,193,76,064,40,20,74,035,45,15,70,281,47,13,67,035,44*4D
$GPGSV,4,2,14,05,58,074,42,50,46,179,32,18,39,310,41,24,26,185,34*73
$GPGSV,4,3,14,195,25,183,38,29,21,241,29,30,20,046,29,23,15,297,33*45
$GPGSV,4,4,14,194,14,154,29,02,13,157,38*46
$GLGSV,3,1,11,67,51,020,41,83,51,290,23,82,43,213,37,68,42,297,42*6B
$GLGSV,3,2,11,77,29,097,,76,19,042,22,66,12,063,,78,09,149,42*64
$GLGSV,3,3,11,84,08,337,,81,05,180,,69,02,266,*5C
$GNRMC,132329.000,A,3737.2295,N,12703.2627,E,0.01,206.68,270521,,,D*7F
$GNVTG,206.68,T,,M,0.01,N,0.02,K,D*2F
$GNGGA,132330.000,3737.2295,N,12703.2627,E,2,19,0.70,34.3,M,19.6,M,,*4E
$GPGSA,A,3,20,193,15,05,18,195,24,29,13,23,02,194,1.22,0.70,1.00*39
$GLGSA,A,3,76,82,68,78,67,83,,,,,,,1.22,0.70,1.00*19
$GNRMC,132330.000,A,3737.2295,N,12703.2627,E,0.01,206.68,270521,,,D*77
$GNVTG,206.68,T,,M,0.01,N,0.01,K,D*2C
$GNGGA,132331.000,3737.2295,N,12703.2627,E,2,19,0.70,34.3,M,19.6,M,,*4F
$GPGSA,A,3,20,193,15,05,18,195,24,29,13,23,02,194,1.22,0.70,1.00*39
$GLGSA,A,3,76,82,68,78,67,83,,,,,,,1.22,0.70,1.00*19
$GNRMC,132331.000,A,3737.2295,N,12703.2627,E,0.06,206.68,270521,,,D*71
$GNVTG,206.68,T,,M,0.06,N,0.11,K,D*2A
$GNGGA,132332.000,3737.2295,N,12703.2627,E,2,19,0.70,34.3,M,19.6,M,,*4C
$GPGSA,A,3,20,193,15,05,18,195,24,29,13,23,02,194,1.22,0.70,1.00*39
$GLGSA,A,3,76,82,68,78,67,83,,,,,,,1.22,0.70,1.00*19
$GNRMC,132332.000,A,3737.2295,N,12703.2627,E,0.01,206.68,270521,,,D*75
$GNVTG,206.68,T,,M,0.01,N,0.03,K,D*2E
$GNGGA,132333.000,3737.2295,N,12703.2627,E,2,19,0.70,34.3,M,19.6,M,,*4D
$GPGSA,A,3,20,193,15,05,18,195,24,29,13,23,02,194,1.22,0.70,1.01*38
$GLGSA,A,3,76,82,68,78,67,83,,,,,,,1.22,0.70,1.01*18
$GNRMC,132333.000,A,3737.2295,N,12703.2627,E,0.01,206.68,270521,,,D*74
$GNVTG,206.68,T,,M,0.01,N,0.02,K,D*2F
$GNGGA,132334.000,3737.2295,N,12703.2628,E,2,19,0.70,34.3,M,19.6,M,,*45
$GPGSA,A,3,20,193,15,05,18,195,24,29,13,23,02,194,1.22,0.70,1.00*39
$GLGSA,A,3,76,82,68,78,67,83,,,,,,,1.22,0.70,1.00*19
$GPGSV,4,1,14,193,76,064,40,20,74,035,45,15,70,281,47,13,67,035,43*4A
$GPGSV,4,2,14,05,58,074,42,50,46,179,33,18,39,310,41,24,26,185,34*72
$GPGSV,4,3,14,195,25,183,37,29,21,241,35,30,20,046,30,23,15,297,34*48
$GPGSV,4,4,14,194,14,154,29,02,13,157,37*49
$GLGSV,3,1,11,67,51,020,42,83,51,290,24,82,43,213,38,68,42,297,42*60
$GLGSV,3,2,11,77,29,097,,76,19,042,27,66,12,063,,78,09,149,41*62
$GLGSV,3,3,11,84,08,337,,81,05,180,,69,02,266,*5C
$GNRMC,132334.000,A,3737.2295,N,12703.2628,E,0.02,206.68,270521,,,D*7F
$GNVTG,206.68,T,,M,0.02,N,0.03,K,D*2D
$GNGGA,132335.000,3737.2295,N,12703.2628,E,2,19,0.70,34.3,M,19.6,M,,*44
$GPGSA,A,3,20,193,15,05,18,195,24,29,13,23,02,194,1.22,0.70,1.01*38
$GLGSA,A,3,76,82,68,78,67,83,,,,,,,1.22,0.70,1.01*18
$GNRMC,132335.000,A,3737.2295,N,12703.2628,E,0.01,206.68,270521,,,D*7D
$GNVTG,206.68,T,,M,0.01,N,0.02,K,D*2F
$GNGGA,132336.000,3737.2295,N,12703.2628,E,2,19,0.70,34.3,M,19.6,M,,*47
$GPGSA,A,3,20,193,15,05,18,195,24,29,13,23,02,194,1.22,0.70,1.00*39
$GLGSA,A,3,76,82,68,78,67,83,,,,,,,1.22,0.70,1.00*19
$GNRMC,132336.000,A,3737.2295,N,12703.2628,E,0.00,206.68,270521,,,D*7F
$GNVTG,206.68,T,,M,0.00,N,0.01,K,D*2D
$GNGGA,132337.000,3737.2295,N,12703.2628,E,2,19,0.70,34.3,M,19.6,M,,*46
$GPGSA,A,3,20,193,15,05,18,195,24,29,13,23,02,194,1.22,0.70,1.00*39
$GLGSA,A,3,76,82,68,78,67,83,,,,,,,1.22,0.70,1.00*19
$GNRMC,132337.000,A,3737.2295,N,12703.2628,E,0.01,206.68,270521,,,D*7F
$GNVTG,206.68,T,,M,0.01,N,0.02,K,D*2F
$GNGGA,132338.000,3737.2295,N,12703.2628,E,2,19,0.70,34.3,M,19.6,M,,*49
$GPGSA,A,3,20,193,15,05,18,195,24,29,13,23,02,194,1.22,0.70,1.00*39
$GLGSA,A,3,76,82,68,78,67,83,,,,,,,1.22,0.70,1.00*19
$GNRMC,132338.000,A,3737.2295,N,12703.2628,E,0.01,206.68,270521,,,D*70
$GNVTG,206.68,T,,M,0.01,N,0.01,K,D*2C
$GNGGA,132339.000,3737.2295,N,12703.2628,E,2,19,0.70,34.3,M,19.6,M,,*48
$GPGSA,A,3,20,193,15,05,18,195,24,29,13,23,02,194,1.22,0.70,1.00*39
$GLGSA,A,3,76,82,68,78,67,83,,,,,,,1.22,0.70,1.00*19
$GPGSV,4,1,14,193,76,064,40,20,74,035,45,15,70,281,47,13,67,035,43*4A
$GPGSV,4,2,14,05,58,074,41,50,46,179,34,18,39,310,41,24,26,185,34*76
$GPGSV,4,3,14,195,25,183,36,29,21,241,36,30,20,046,29,23,15,297,34*42
$GPGSV,4,4,14,194,14,154,29,02,13,157,37*49
$GLGSV,3,1,11,67,51,020,41,83,51,290,23,82,43,213,38,68,42,297,42*64
$GLGSV,3,2,11,77,29,097,25,76,19,042,23,66,12,063,,78,09,149,41*61
$GLGSV,3,3,11,84,08,337,,81,05,180,,69,02,266,*5C
$GNRMC,132339.000,A,3737.2295,N,12703.2628,E,0.01,206.68,270521,,,D*71
$GNVTG,206.68,T,,M,0.01,N,0.01,K,D*2C
$GNGGA,132340.000,3737.2295,N,12703.2628,E,2,19,0.70,34.3,M,19.6,M,,*46
$GPGSA,A,3,20,193,15,05,18,195,24,29,13,23,02,194,1.22,0.70,1.01*38
$GLGSA,A,3,76,82,68,78,67,83,,,,,,,1.22,0.70,1.01*18
$GNRMC,132340.000,A,3737.2295,N,12703.2628,E,0.01,206.68,270521,,,D*7F
$GNVTG,206.68,T,,M,0.01,N,0.01,K,D*2C
$GNGGA,132341.000,3737.2295,N,12703.2628,E,2,19,0.70,34.3,M,19.6,M,,*47
$GPGSA,A,3,20,193,15,05,18,195,24,29,13,23,02,194,1.22,0.70,1.01*38
$GLGSA,A,3,76,82,68,78,67,83,,,,,,,1.22,0.70,1.01*18
$GNRMC,132341.000,A,3737.2295,N,12703.2628,E,0.00,206.68,270521,,,D*7F
$GNVTG,206.68,T,,M,0.00,N,0.01,K,D*2D
$GNGGA,132342.000,3737.2295,N,12703.2628,E,2,19,0.70,34.3,M,19.6,M,,*44
$GPGSA,A,3,20,193,15,05,18,195,24,29,13,23,02,194,1.22,0.70,1.01*38
$GLGSA,A,3,76,82,68,78,67,83,,,,,,,1.22,0.70,1.01*18
$GNRMC,132342.000,A,3737.2295,N,12703.2628,E,0.01,206.68,270521,,,D*7D
$GNVTG,206.68,T,,M,0.01,N,0.02,K,D*2F
$GNGGA,132343.000,3737.2295,N,12703.2628,E,2,18,0.86,34.3,M,19.6,M,,*4D
$GPGSA,A,3,20,193,15,05,18,195,24,29,13,23,02,194,1.50,0.86,1.22*35
$GLGSA,A,3,76,82,68,78,67,83,,,,,,,1.50,0.86,1.22*15
$GNRMC,132343.000,A,3737.2295,N,12703.2628,E,0.01,206.68,270521,,,D*7C
$GNVTG,206.68,T,,M,0.01,N,0.02,K,D*2F
$GNGGA,132344.000,3737.2295,N,12703.2628,E,2,19,0.70,34.3,M,19.6,M,,*42
$GPGSA,A,3,20,193,15,05,18,195,24,29,13,23,02,194,1.22,0.70,1.00*39
$GLGSA,A,3,76,82,68,78,67,83,,,,,,,1.22,0.70,1.00*19
$GPGSV,4,1,14,193,76,064,40,20,74,035,45,15,70,281,46,13,67,035,43*4B
$GPGSV,4,2,14,05,58,074,42,50,46,179,33,18,39,310,42,24,26,185,34*71
$GPGSV,4,3,14,195,25,183,35,29,21,241,34,30,20,046,30,23,15,297,34*4B
$GPGSV,4,4,14,194,14,154,29,02,13,157,36*48
$GLGSV,3,1,11,67,51,020,41,83,51,290,25,82,43,213,37,68,42,297,42*6D
$GLGSV,3,2,11,77,29,097,18,76,19,042,28,66,12,063,,78,09,149,40*65
$GLGSV,3,3,11,84,08,337,,81,05,180,,69,02,266,*5C
$GNRMC,132344.000,A,3737.2295,N,12703.2628,E,0.01,206.68,270521,,,D*7B
$GNVTG,206.68,T,,M,0.01,N,0.01,K,D*2C
$GNGGA,132345.000,3737.2295,N,12703.2628,E,2,19,0.70,34.3,M,19.6,M,,*43
$GPGSA,A,3,20,193,15,05,18,195,24,29,13,23,02,194,1.22,0.70,1.01*38
$GLGSA,A,3,76,82,68,78,67,83,,,,,,,1.22,0.70,1.01*18
$GNRMC,132345.000,A,3737.2295,N,12703.2628,E,0.01,206.68,270521,,,D*7A
$GNVTG,206.68,T,,M,0.01,N,0.02,K,D*2F
$GNGGA,132346.000,3737.2295,N,12703.2628,E,2,19,0.70,34.3,M,19.6,M,,*40
$GPGSA,A,3,20,193,15,05,18,195,24,29,13,23,02,194,1.22,0.70,1.01*38
$GLGSA,A,3,76,82,68,78,67,83,,,,,,,1.22,0.70,1.01*18
$GNRMC,132346.000,A,3737.2295,N,12703.2628,E,0.02,206.68,270521,,,D*7A
$GNVTG,206.68,T,,M,0.02,N,0.03,K,D*2D
$GNGGA,132347.000,3737.2295,N,12703.2628,E,2,19,0.70,34.3,M,19.6,M,,*41
$GPGSA,A,3,20,193,15,05,18,195,24,29,13,23,02,194,1.22,0.70,1.01*38
$GLGSA,A,3,76,82,68,78,67,83,,,,,,,1.22,0.70,1.01*18
$GNRMC,132347.000,A,3737.2295,N,12703.2628,E,0.01,206.68,270521,,,D*78
$GNVTG,206.68,T,,M,0.01,N,0.01,K,D*2C
$GNGGA,132348.000,3737.2294,N,12703.2628,E,2,18,0.70,34.3,M,19.6,M,,*4E
$GPGSA,A,3,20,193,15,05,18,195,24,29,13,23,02,194,1.22,0.70,1.01*38
$GLGSA,A,3,82,68,78,67,83,,,,,,,,1.22,0.70,1.01*19
$GNRMC,132348.000,A,3737.2294,N,12703.2628,E,0.00,206.68,270521,,,D*77
$GNVTG,206.68,T,,M,0.00,N,0.01,K,D*2D
$GNGGA,132349.000,3737.2294,N,12703.2628,E,2,18,0.70,34.3,M,19.6,M,,*4F
$GPGSA,A,3,20,193,15,05,18,195,24,29,13,23,02,194,1.22,0.70,1.01*38
$GLGSA,A,3,82,68,78,67,83,,,,,,,,1.22,0.70,1.01*19
$GPGSV,4,1,14,193,76,064,40,20,74,035,45,15,70,281,46,13,67,035,43*4B
$GPGSV,4,2,14,05,58,074,43,50,46,179,33,18,39,310,42,24,26,185,34*70
$GPGSV,4,3,14,195,25,183,36,29,21,241,24,30,20,046,30,23,15,297,35*48
$GPGSV,4,4,14,194,14,154,30,02,13,157,36*40
$GLGSV,3,1,11,67,51,020,40,83,51,290,25,82,43,213,37,68,42,297,42*6C
$GLGSV,3,2,11,77,29,097,24,76,19,042,29,66,11,064,,78,09,149,40*6F
$GLGSV,3,3,11,84,08,337,,81,05,180,,69,02,266,*5C
$GNRMC,132349.000,A,3737.2294,N,12703.2628,E,0.01,206.68,270521,,,D*77
$GNVTG,206.68,T,,M,0.01,N,0.01,K,D*2C
$GNGGA,132350.000,3737.2294,N,12703.2628,E,2,19,0.70,34.3,M,19.6,M,,*46
$GPGSA,A,3,20,193,15,05,18,195,24,29,13,23,02,194,1.22,0.70,1.01*38
$GLGSA,A,3,76,82,68,78,67,83,,,,,,,1.22,0.70,1.01*18
$GNRMC,132350.000,A,3737.2294,N,12703.2628,E,0.05,206.68,270521,,,D*7B
$GNVTG,206.68,T,,M,0.05,N,0.09,K,D*20
$GNGGA,132351.000,3737.2294,N,12703.2628,E,2,19,0.70,34.3,M,19.6,M,,*47
$GPGSA,A,3,20,193,15,05,18,195,24,29,13,23,02,194,1.22,0.70,1.00*39
$GLGSA,A,3,76,82,68,78,67,83,,,,,,,1.22,0.70,1.00*19
$GNRMC,132351.000,A,3737.2294,N,12703.2628,E,0.01,206.68,270521,,,D*7E
$GNVTG,206.68,T,,M,0.01,N,0.03,K,D*2E
$GNGGA,132352.000,3737.2294,N,12703.2628,E,2,19,0.70,34.3,M,19.6,M,,*44
$GPGSA,A,3,20,193,15,05,18,195,24,29,13,23,02,194,1.22,0.70,1.01*38
$GLGSA,A,3,76,82,68,78,67,83,,,,,,,1.22,0.70,1.01*18
$GNRMC,132352.000,A,3737.2294,N,12703.2628,E,0.01,206.68,270521,,,D*7D
$GNVTG,206.68,T,,M,0.01,N,0.02,K,D*2F
$GNGGA,132353.000,3737.2294,N,12703.2628,E,2,19,0.70,34.3,M,19.6,M,,*45
$GPGSA,A,3,20,193,15,05,18,195,24,29,13,23,02,194,1.22,0.70,1.00*39
$GLGSA,A,3,76,82,68,78,67,83,,,,,,,1.22,0.70,1.00*19
$GNRMC,132353.000,A,3737.2294,N,12703.2628,E,0.00,206.68,270521,,,D*7D
$GNVTG,206.68,T,,M,0.00,N,0.01,K,D*2D
$GNGGA,132354.000,3737.2294,N,12703.2628,E,2,19,0.70,34.3,M,19.6,M,,*42
$GPGSA,A,3,20,193,15,05,18,195,24,29,13,23,02,194,1.22,0.70,1.01*38
$GLGSA,A,3,76,82,68,78,67,83,,,,,,,1.22,0.70,1.01*18
$GPGSV,4,1,14,193,76,064,40,20,74,035,45,15,70,281,46,13,67,035,43*4B
$GPGSV,4,2,14,05,58,074,43,50,46,179,33,18,39,310,42,24,26,185,35*71
$GPGSV,4,3,14,195,25,183,36,29,21,241,27,30,20,046,30,23,15,297,35*4B
$GPGSV,4,4,14,194,14,154,28,02,13,157,36*49
$GLGSV,3,1,11,83,51,290,25,67,50,022,39,82,43,213,38,68,42,299,41*63
$GLGSV,3,2,11,77,29,097,21,76,19,042,34,66,11,064,,78,09,149,39*68
$GLGSV,3,3,11,84,08,337,,81,05,180,,69,03,266,*5D
$GNRMC,132354.000,A,3737.2294,N,12703.2628,E,0.01,206.68,270521,,,D*7B
$GNVTG,206.68,T,,M,0.01,N,0.01,K,D*2C
$GNGGA,132355.000,3737.2294,N,12703.2628,E,2,18,0.70,34.3,M,19.6,M,,*42
$GPGSA,A,3,20,193,15,05,18,195,24,29,13,23,02,194,1.22,0.70,1.00*39
$GLGSA,A,3,82,68,78,67,83,,,,,,,,1.22,0.70,1.00*18
$GNRMC,132355.000,A,3737.2294,N,12703.2628,E,0.01,206.68,270521,,,D*7A
$GNVTG,206.68,T,,M,0.01,N,0.02,K,D*2F
$GNGGA,132356.000,3737.2294,N,12703.2628,E,2,19,0.70,34.3,M,19.6,M,,*40
$GPGSA,A,3,20,193,15,05,18,195,24,29,13,23,02,194,1.22,0.70,1.01*38
$GLGSA,A,3,76,82,68,78,67,83,,,,,,,1.22,0.70,1.01*18
$GNRMC,132356.000,A,3737.2294,N,12703.2628,E,0.02,206.68,270521,,,D*7A
$GNVTG,206.68,T,,M,0.02,N,0.04,K,D*2A
$GNGGA,132357.000,3737.2294,N,12703.2628,E,2,19,0.64,34.3,M,19.6,M,,*44
$GPGSA,A,3,20,193,15,05,18,195,24,29,13,23,02,194,1.12,0.64,0.92*35
$GLGSA,A,3,76,82,68,78,67,83,,,,,,,1.12,0.64,0.92*15
$GNRMC,132357.000,A,3737.2294,N,12703.2628,E,0.01,206.68,270521,,,D*78
$GNVTG,206.68,T,,M,0.01,N,0.01,K,D*2C
$GNGGA,132358.000,3737.2294,N,12703.2628,E,2,19,0.64,34.3,M,19.6,M,,*4B
$GPGSA,A,3,20,193,15,05,18,195,24,29,13,23,02,194,1.12,0.64,0.92*35
$GLGSA,A,3,76,82,68,78,67,83,,,,,,,1.12,0.6
$GNRMC,132358.000,A,3737.2294,N,12703.2628,E,0.01,206.68,270521,,,D*77
$GNVTG,206.68,T,,M,0.01,N,0.01,K,D*2C
$GNGGA,132359.000,3737.2294,N,12703.2628,E,2,19,0.64,34.3,M,19.6,M,,*4A
$GPGSA,A,3,20,193,15,05,18,195,24,29,13,23,02,194,1.12,0.64,0.92*35
$GLGSA,A,3,76,82,68,78,67,83,,,,,,,1.12,0.64,0.92*15
$GPGSV,4,1,14,193,76,064,40,20,74,035,45,15,70,281,46,13,67,035,42*4A
$GPGSV,4,2,14,05,58,074,43,50,46,179,32,18,39,310,42,24,26,185,33*76
$GPGSV,4,3,14,195,25,183,37,29,21,241,32,30,20,046,29,23,15,297,35*46
$GPGSV,4,4,14,194,14,154,28,02,13,157,36*49
$GLGSV,3,1,183,51,290,28,67,50,022,38,82,43,213,37,68,42,299,40*61
$GLGSV,3,2,11,77,29,097,25,76,18,041,29,66,11,064,,78,09,149,40*6C
$GLGSV,3,3,11,84,08,337,,81,05,180,,69,03,266,*5D
$GNRMC,132359.000,A,3737.2294,N,12703.2628,E,0.00,206.68,270521,,,D*77
$GNVTG,206.68,T,,M,0.00,N,0.00,K,D*2C
$GNGGA,132400.000,3737.2294,N,12703.2628,E,2,19,0.64,34.2,M,19.6,M,,*40
$GPGSA,A,3,20,193,15,05,18,195,24,29,13,23,02,194,1.12,0.64,0.92*35
$GLGSA,A,3,76,82,68,78,67,83,,,,,,,1.12,0.64,0.92*15
$GNRMC,132400.000,A,3737.2294,N,1203.2628,E,0.00,206.68,270521,,,D*7C
$GNVTG,206.68,T,,M,0.00,N,0.00,K,D*2C
$GNGGA,132401.000,3737.2294,N,12703.2628,E,2,19,0.64,34.2,M,19.6,M,,*41
$GPGSA,A,3,20,193,15,05,18,195,24,29,13,23,02,194,1.12,0.64,0.92*35
$GLGSA,A,3,76,82,68,78,67,83,,,,,,,1.12,0.64,0.92*15
$GNRMC,132401.000,A,3737.2294,N,12703.2628,E,0.01,206.68,270521,,,D*7C
$GNVTG,206.68,T,,M,0.01,N,0.01,K,D*2C
$GNGGA,132402.000,3737.2294,N,12703.2628,E,2,19,0.64,34.2,M,19.6,M,,*42
$GPGSA,A,3,20,193,15,05,18,195,24,29,13,23,02,194,1.12,0.64,0.92*35
$GLGSA,A,3,76,82,68,78,67,83,,,,,,,1.12,0.64,0.92*15
$GNRMC,132402.000,A,3737.2294,N,12703.2628,E,0.01,206.68,270521,,,D*7F
$GNVTG,206.68,T,,M,0.01,N,0.01,K,D*2C
$GNGGA,132403.000,3737.2294,N,12703.2628,E,2,19,0.64,34.2,M,19.6,M,,*43
$GPGSA,A,3,20,193,15,05,18,195,24,29,13,23,02,194,1.12,0.64,0.92*35
$GLGSA,A,3,76,82,68,78,67,83,,,,,,,1.12,0.64,0.92*15
$GNRMC,132403.000,A,3737.2294,N,12703.2628,E,0.00,206.68,270521,,,D*7F
$GNVTG,206.68,T,,M,0.00,N,0.01,K,D*2D
$GNGGA,132404.000,3737.2294,N,12703.2628,E,2,19,0.64,34.2,M,19.6,M,,*44
$GPGSA,A,3,20,193,15,05,18,195,24,29,13,23,02,194,1.12,0.64,0.92*35
$GLGSA,A,3,76,82,68,78,67,83,,,,,,,1.12,0.64,0.92*15
$GPGSV,4,1,14,193,76,064,40,20,74,035,45,15,70,281,46,13,67,035,43*4B
$GPGSV,4,2,14,05,58,074,44,50,46,179,32,18,39,310,42,24,26,185,31*73
$GPGSV,4,3,14,195,25,183,37,29,21,241,33,30,20,046,29,23,15,297,35*47
$GPGSV,4,4,14,194,14,154,29,02,13,157,36*48
$GLGSV,3,1,11,83,51,290,27,67,50,022,40,82,43,213,37,68,42,299,40*61
$GLGSV,3,2,11,77,30,096,27,76,18,041,29,66,11,064,,78,10,148,39*60
$GLGSV,3,3,11,84,08,337,,81,04,180,,69,03,266,*5C
$GNRMC,132404.000,A,3737.2294,N,12703.2628,E,0.00,206.68,270521,,,D*78
$GNVTG,206.68,T,,M,0.00,N,0.01,K,D*2D
$GNGGA,132405.000,3737.2294,N,12703.2628,E,2,19,0.64,34.2,M,19.6,M,,*45
$GPGSA,A,3,20,193,15,05,18,195,24,29,13,23,02,194,1.12,0.64,0.92*35
$GLGSA,A,3,76,82,68,78,67,83,,,,,,,1.12,0.64,0.92*15
$GNRMC,132405.000,A,3737.2294,N,12703.2628,E,0.01,206.68,270521,,,D*78
$GNVTG,206.68,T,,M,0.01,N,0.02,K,D*2F
$GNGGA,132406.000,3737.2294,N,12703.2628,E,2,19,0.64,34.2,M,19.6,M,,*46
$GPGSA,A,3,20,193,15,05,18,195,24,29,13,23,02,194,1.12,0.64,0.92*35
$GLGSA,A,3,76,82,68,78,67,83,,,,,,,1.12,0.64,0.92*15
$GNRMC,132406.000,A,3737.2294,N,12703.2628,E,0.00,206.68,270521,,,D*7A
$GNVTG,206.68,T,,M,0.00,N,0.01,K,D*2D
$GNGGA,132407.000,3737.2294,N,12703.2628,E,2,19,0.64,34.2,M,19.6,M,,*47
$GPGSA,A,3,20,193,15,05,18,195,24,29,13,23,02,194,1.12,0.64,0.92*35
$GLGSA,A,3,76,82,68,78,67,83,,,,,,,1.12,0.64,0.92*15
$GNRMC,132407.000,A,3737.2294,N,12703.2628,E,0.02,206.68,270521,,,D*79
$GNVTG,206.68,T,,M,0.02,N,0.03,K,D*2D
$GNGGA,132408.000,3737.2294,N,12703.2628,E,2,19,0.64,34.2,M,19.6,M,,*48
$GPGSA,A,3,20,193,15,05,18,195,24,29,13,23,02,194,1.12,0.64,0.92*35
$GLGSA,A,3,76,82,68,78,67,83,,,,,,,1.12,0.64,0.92*15
$GNRMC,132408.000,A,3737.2294,N,12703.2628,E,0.00,206.68,270521,,,D*74
$GNVTG,206.68,T,,M,0.00,N,0.01,K,D*2D
3,05,18,
$GLGSV,3,2,10,77,32,091,30,76,17,037,22,78,14,146,37,84,12,335,*6B
$GLGSV,3,3,10,66,09,067,,69,05,270,*63
$GNRÒ”133324.000,A,3737.2318,N,12703.2621,E,0.02,186.83,270521,,,D*7C
$GNVTG,186.83,T,,M,0.02,N,0.03,K,86.83,270521,,,D*7E
$GNVTG,186.819.6,M,,*45
$GPGSA,A,3,20,15,13,05,18,24,195,193,30,23,29,194,1.10,0.61,0.92*33
$GLGSA,A,3,67,68,77,76,78,82,83,$GNGGA,133327.000,3737.2318,N,12703.2621,E,2,20,0.61,32.0,M,19.6,M,,*44
$GPGSA,A,3,20,15,13,05,18,24,195,193,30,23,29,194,1.10$GNGGA,133328.000,3737.2318,N,12703.2621,E,2,20,0.61,32.0,M,19.6,M,,*4B
$GPGSA,A,3,20,15,13,05,18,24,195,193,30,23,29,191,15,193,76,064,43,20,74,050,45,15,72,296,48,13,62,037,44*40
$GPGSV,4,2,15,05,55,082,39,50,46,179,38,18,42,308,43,24,30,185,34*3,183,38,29,18,238,23,23,18,299,37,30,17,044,37*42control mode
#0
control mode
#0
control mode
#0
control mode
#0
control mode
#0
control mode
#0
control mode
#0
control mode
#0
control mode
#0
Àÿcontrol mode