74
$GPGSV,4,4,14,23,13,295,21,194,13,154,19*44
$GLGSV,3,1,11,67,52,016,23,83,51,295,32,82,46,215,43,68,41,294,38*61
$GLGSV,3,2,11,77,28,100,,76,19,045,25,66,14,061,28,78,07,150,29*6F
$GLGSV,3,3,11,81,07,180,,84,06,338,,69,01,263,*59
$GNRMC,131745.000,A,3737.2298,N,12703.2670,E,0.02,357.24,270521,,,D*73
$GNVTG,357.24,T,,M,0.02,N,0.03,K,D*20
$GNGGA,131746.000,3737.2298,N,12703.2669,E,2,18,0.71,34.8,M,19.6,M,,*44
$GPGSA,A,3,193,05,18,15,195,24,194,20,13,30,29,,1.23,0.71,1.01*38
$GLGSA,A,3,67,83,82,68,76,66,78,,,,,,1.23,0.71,1.01*18
$GNRMC,131746.000,A,3737.2298,N,12703.2669,E,0.02,357.24,270521,,,D*78
$GNVTG,357.24,T,,M,0.02,N,0.03,K,D*20
$GNGGA,131747.000,3737.2298,N,12703.2669,E,2,18,0.67,34.9,M,19.6,M,,*43
$GPGSA,A,3,193,05,18,15,195,24,194,20,13,30,29,,0.98,0.67,0.71*38
$GLGSA,A,3,67,83,82,68,76,66,78,,,,,,0.98,0.67,0.71*18
$GNRMC,131747.000,A,3737.2298,N,12703.2669,E,0.01,357.24,270521,,,D*7A
$GNVTG,357.24,T,,M,0.01,N,0.03,K,D*23
$GNGGA,131748.000,3737.2298,N,12703.2669,E,2,19,0.62,34.9,M,19.6,M,,*48
$GPGSA,A,3,193,05,18,15,195,23,24,194,20,13,30,29,1.07,0.62,0.87*32
$GLGSA,A,3,67,83,82,68,76,66,78,,,,,,1.07,0.62,0.87*13
$GNRMC,131748.000,A,3737.2298,N,12703.2669,E,0.09,357.24,270521,,,D*7D
$GNVTG,357.24,T,,M,0.09,N,0.17,K,D*2E
$GNGGA,131749.000,3737.2298,N,12703.2670,E,2,19,0.61,34.9,M,19.6,M,,*42
$GPGSA,A,3,193,05,18,15,195,23,24,194,20,13,30,29,0.90,0.61,0.66*31
$GLGSA,A,3,67,83,82,68,76,66,78,,,,,,0.90,0.61,0.66*10
$GNRMC,131749.000,A,3737.2298,N,12703.2670,E,0.10,357.24,270521,,,D*7C
$GNVTG,357.24,T,,M,0.10,N,0.18,K,D*29
$GNGGA,131750.000,3737.2298,N,12703.2670,E,2,19,0.62,34.9,M,19.6,M,,*49
$GPGSA,A,3,193,05,18,15,195,23,24,194,20,13,30,29,1.07,0.62,0.87*32
$GLGSA,A,3,67,83,82,68,76,66,78,,,,,,1.07,0.62,0.87*13
$GPGSV,4,1,14,193,77,064,38,20,74,025,34,13,70,034,27,15,68,275,42*41
$GPGSV,4,2,14,05,59,070,37,50,46,179,28,18,37,312,37,195,26,182,38*42
$GPGSV,4,3,14,24,24,185,32,29,23,243,32,30,21,048,28,02,15,156,*7A
$GPGSV,4,4,14,23,13,295,22,194,13,154,17*49
$GLGSV,3,1,11,67,52,016,19,83,51,295,32,82,46,215,44,68,41,294,38*6F
$GLGSV,3,2,11,77,28,100,17,76,19,045,24,66,14,061,27,78,07,150,29*67
$GLGSV,3,3,11,81,07,180,,84,06,338,,69,01,263,*59
$GNRMC,131750.000,A,3737.2298,N,12703.2670,E,0.07,357.24,270521,,,D*72
$GNVTG,357.24,T,,M,0.07,N,0.13,K,D*24
$GNGGA,131751.000,3737.2298,N,12703.2670,E,2,19,0.62,34.9,M,19.6,M,,*48
$GPGSA,A,3,193,05,18,15,195,23,24,194,20,13,30,29,1.07,0.62,0.87*32
$GLGSA,A,3,67,83,82,68,76,66,78,,,,,,1.07,0.62,0.87*13
$GNRMC,131751.000,A,3737.2298,N,12703.2670,E,0.02,357.24,270521,,,D*76
$GNVTG,357.24,T,,M,0.02,N,0.03,K,D*20
$GNGGA,131752.000,3737.2298,N,12703.2670,E,2,19,0.62,34.9,M,19.6,M,,*4B
$GPGSA,A,3,193,05,18,15,195,23,24,194,20,13,30,29,1.07,0.62,0.87*32
$GLGSA,A,3,67,83,82,68,76,66,78,,,,,,1.07,0.62,0.87*13
$GNRMC,131752.000,A,3737.2298,N,12703.2670,E,0.17,357.24,270521,,,D*71
$GNVTG,357.24,T,,M,0.17,N,0.31,K,D*25
$GNGGA,131753.000,3737.2298,N,12703.2670,E,2,19,0.61,35.0,M,19.6,M,,*41
$GPGSA,A,3,193,05,18,15,195,23,24,194,20,13,30,29,0.90,0.61,0.66*31
$GLGSA,A,3,67,83,82,68,76,66,78,,,,,,0.90,0.61,0.66*10
$GNRMC,131753.000,A,3737.2298,N,12703.2670,E,0.13,357.24,270521,,,D*74
$GNVTG,357.24,T,,M,0.13,N,0.23,K,D*22
$GNGGA,131754.000,3737.2298,N,12703.2670,E,2,19,0.61,35.0,M,19.6,M,,*46
$GPGSA,A,3,193,05,18,15,195,23,24,194,20,13,30,29,0.90,0.61,0.66*31
$GLGSA,A,3,67,83,82,68,76,66,78,,,,,,0.90,0.61,0.66*10
$GNRMC,131754.000,A,3737.2298,N,12703.2670,E,0.41,357.24,270521,,,D*74
$GNVTG,357.24,T,,M,0.41,N,0.76,K,D*25
$GNGGA,131755.000,3737.2298,N,12703.2670,E,2,19,0.61,35.0,M,19.6,M,,*47
$GPGSA,A,3,193,05,18,15,195,23,24,194,20,13,30,29,0.90,0.61,0.66*31
$GLGSA,A,3,67,83,82,68,76,66,78,,,,,,0.90,0.61,0.66*10
$GPGSV,4,1,14,193,77,064,37,20,74,025,34,13,70,034,27,15,68,275,42*4E
$GPGSV,4,2,14,05,59,070,37,50,46,179,28,18,37,312,37,195,26,182,38*42
$GPGSV,4,3,14,24,24,185,33,29,23,243,30,30,21,048,27,02,15,156,19*7E
$GPGSV,4,4,14,23,13,295,24,194,13,154,17*4F
$GLGSV,3,1,11,67,52,016,22,83,51,295,32,82,46,215,44,68,41,294,38*67
$GLGSV,3,2,11,77,28,100,,76,19,045,30,66,14,061,23,78,07,150,28*61
$GLGSV,3,3,11,81,07,180,,84,06,338,,69,01,263,*59
$GNRMC,131755.000,A,3737.2298,N,12703.2670,E,0.29,357.24,270521,,,D*7B
$GNVTG,357.24,T,,M,0.29,N,0.55,K,D*2A
$GNGGA,131756.000,3737.2298,N,12703.2671,E,2,20,0.61,35.0,M,19.6,M,,*4F
$GPGSA,A,3,193,05,18,15,195,23,24,02,194,20,13,30,1.06,0.61,0.87*39
$GLGSA,A,3,67,83,82,68,76,66,78,,,,,,1.06,0.61,0.87*11
$GNRMC,131756.000,A,3737.2298,N,12703.2671,E,0.20,357.24,270521,,,D*70
$GNVTG,357.24,T,,M,0.20,N,0.37,K,D*27
$GNGGA,131757.000,3737.2298,N,12703.2671,E,2,20,0.59,35.0,M,19.6,M,,*45
$GPGSA,A,3,193,05,18,15,195,23,24,02,194,20,13,30,0.88,0.59,0.66*3A
$GLGSA,A,3,67,83,82,68,76,66,78,,,,,,0.88,0.59,0.66*12
$GNRMC,131757.000,A,3737.2298,N,12703.2671,E,0.03,357.24,270521,,,D*70
$GNVTG,357.24,T,,M,0.03,N,0.05,K,D*27
$GNGGA,131758.000,3737.2298,N,12703.2671,E,2,19,0.61,35.0,M,19.6,M,,*4B
$GPGSA,A,3,193,05,18,15,195,23,24,194,20,13,30,29,0.90,0.61,0.66*31
$GLGSA,A,3,67,83,82,68,76,66,78,,,,,,0.90,0.61,0.66*10
$GNRMC,131758.000,A,3737.2298,N,12703.2671,E,0.12,357.24,270521,,,D*7F
$GNVTG,357.24,T,,M,0.12,N,0.23,K,D*23
$GNGGA,131759.000,3737.2298,N,12703.2672,E,2,18,0.65,35.0,M,19.6,M,,*4C
$GPGSA,A,3,193,05,18,15,195,23,24,20,13,30,29,,1.10,0.65,0.88*00
$GLGSA,A,3,67,83,82,68,76,66,78,,,,,,1.10,0.65,0.88*1D
$GNRMC,131759.000,A,3737.2298,N,12703.2672,E,0.08,357.24,270521,,,D*76
$GNVTG,357.24,T,,M,0.08,N,0.14,K,D*2C
$GNGGA,131800.000,3737.2298,N,12703.2672,E,2,18,0.64,34.9,M,19.6,M,,*46
$GPGSA,A,3,193,05,18,15,195,23,24,20,13,30,29,,0.92,0.64,0.66*0A
$GLGSA,A,3,67,83,82,68,76,66,78,,,,,,0.92,0.64,0.66*17
$GPGSV,4,1,14,193,77,064,36,20,74,025,33,13,70,034,24,15,68,275,41*48
$GPGSV,4,2,14,05,59,070,36,50,46,179,27,18,37,312,36,195,26,182,36*43
$GPGSV,4,3,14,24,24,185,32,29,23,243,28,30,21,048,25,02,15,156,*7C
$GPGSV,4,4,14,23,13,295,23,194,13,154,16*49
$GLGSV,3,1,11,67,52,016,19,83,51,295,32,82,46,215,43,68,41,294,38*68
$GLGSV,3,2,11,77,28,100,,76,19,045,31,66,14,061,23,78,07,150,29*61
$GLGSV,3,3,11,81,07,180,,84,06,338,,69,01,263,*59
$GNRMC,131800.000,A,3737.2298,N,12703.2672,E,0.07,357.24,270521,,,D*7A
$GNVTG,357.24,T,,M,0.07,N,0.12,K,D*25
$GNGGA,131801.000,3737.2298,N,12703.2672,E,2,18,0.65,34.9,M,19.6,M,,*46
$GPGSA,A,3,193,05,18,15,195,23,24,20,13,30,29,,1.10,0.65,0.89*01
$GLGSA,A,3,67,83,82,68,76,66,78,,,,,,1.10,0.65,0.89*1C
$GNRMC,131801.000,A,3737.2298,N,12703.2672,E,0.15,357.24,270521,,,D*78
$GNVTG,357.24,T,,M,0.15,N,0.28,K,D*2F
$GNGGA,131802.000,3737.2298,N,12703.2672,E,2,19,0.62,34.9,M,19.6,M,,*43
$GPGSA,A,3,193,05,18,15,195,23,24,194,20,13,30,29,1.07,0.62,0.87*32
$GLGSA,A,3,67,83,82,68,76,66,78,,,,,,1.07,0.62,0.87*13
$GNRMC,131802.000,A,3737.2298,N,12703.2672,E,0.05,357.24,270521,,,D*7A
$GNVTG,357.24,T,,M,0.05,N,0.09,K,D*2D
$GNGGA,131803.000,3737.2299,N,12703.2671,E,2,19,0.61,34.9,M,19.6,M,,*43
$GPGSA,A,3,193,05,18,15,195,23,24,194,20,13,30,29,0.90,0.61,0.66*31
$GLGSA,A,3,67,83,82,68,76,66,78,,,,,,0.90,0.61,0.66*10
$GNRMC,131803.000,A,3737.2299,N,12703.2671,E,0.16,357.24,270521,,,D*7B
$GNVTG,357.24,T,,M,0.16,N,0.30,K,D*25
$GNGGA,131804.000,3737.2299,N,12703.2671,E,2,20,0.59,34.9,M,19.6,M,,*45
$GPGSA,A,3,193,05,18,15,195,23,24,02,194,20,13,30,0.88,0.59,0.66*3A
$GLGSA,A,3,67,83,82,68,76,66,78,,,,,,0.88,0.59,0.66*12
$GNRMC,131804.000,A,3737.2299,N,12703.2671,E,0.17,357.24,270521,,,D*7D
$GNVTG,357.24,T,,M,0.17,N,0.32,K,D*26
$GNGGA,131805.000,3737.2299,N,12703.2672,E,2,20,0.61,34.9,M,19.6,M,,*4C
$GPGSA,A,3,193,05,18,15,195,23,24,02,194,20,13,30,1.06,0.61,0.87*39
$GLGSA,A,3,67,83,82,68,76,66,78,,,,,,1.06,0.61,0.87*11
$GPGSV,4,1,14,193,77,064,37,20,74,025,34,13,70,034,27,15,68,275,41*4D
$GPGSV,4,2,14,05,59,070,37,50,46,179,28,18,37,312,35,195,26,182,37*4F
$GPGSV,4,3,14,24,24,185,32,29,23,243,31,30,21,048,24,02,15,156,23*74
$GPGSV,4,4,14,23,13,295,28,194,13,154,21*46
$GLGSV,3,1,11,67,52,016,16,83,51,295,31,82,46,215,43,68,41,294,39*65
$GLGSV,3,2,11,77,28,100,,76,19,045,31,66,14,061,23,78,07,150,31*68
$GLGSV,3,3,11,81,07,180,,84,06,338,,69,01,263,*59
$GNRMC,131805.000,A,3737.2299,N,12703.2672,E,0.20,357.24,270521,,,D*7B
$GNVTG,357.24,T,,M,0.20,N,0.36,K,D*26
$GNGGA,131806.000,3737.2299,N,12703.2672,E,2,19,0.68,34.8,M,19.6,M,,*4D
$GPGSA,A,3,193,05,18,15,195,23,24,02,194,20,13,30,0.98,0.68,0.70*3E
$GLGSA,A,3,67,83,82,68,76,78,,,,,,,0.98,0.68,0.70*16
$GNRMC,131806.000,A,3737.2299,N,12703.2672,E,0.06,357.24,270521,,,D*7C
$GNVTG,357.24,T,,M,0.06,N,0.10,K,D*26
$GNGGA,131807.000,3737.2299,N,12703.2672,E,2,19,0.63,34.8,M,19.6,M,,*47
$GPGSA,A,3,193,05,18,15,195,23,24,02,194,20,13,29,1.10,0.63,0.89*3A
$GLGSA,A,3,67,83,82,68,76,66,78,,,,,,1.10,0.63,0.89*1A
$GNRMC,131807.000,A,3737.2299,N,12703.2672,E,0.09,357.24,270521,,,D*72
$GNVTG,357.24,T,,M,0.09,N,0.17,K,D*2E
$GNGGA,131808.000,3737.2299,N,12703.2672,E,2,20,0.59,34.9,M,19.6,M,,*4A
$GPGSA,A,3,193,05,18,15,195,23,24,02,194,20,13,30,0.88,0.59,0.66*3A
$GLGSA,A,3,67,83,82,68,76,66,78,,,,,,0.88,0.59,0.66*12
$GNRMC,131808.000,A,3737.2299,N,12703.2672,E,0.00,357.24,270521,,,D*74
$GNVTG,357.24,T,,M,0.00,N,0.00,K,D*21
$GNGGA,131809.000,3737.2299,N,12703.2672,E,2,20,0.61,34.9,M,19.6,M,,*40
$GPGSA,A,3,193,05,18,15,195,23,24,02,194,20,13,30,1.06,0.61,0.87*39
$GLGSA,A,3,67,83,82,68,76,66,78,,,,,,1.06,0.61,0.87*11
$GNRMC,131809.000,A,3737.2299,N,12703.2672,E,0.05,357.24,270521,,,D*70
$GNVTG,357.24,T,,M,0.05,N,0.10,K,D*25
$GNGGA,131810.000,3737.2299,N,12703.2672,E,2,20,0.61,34.9,M,19.6,M,,*48
$GPGSA,A,3,193,05,18,15,195,23,24,02,194,20,13,30,1.06,0.61,0.87*39
$GLGSA,A,3,67,83,82,68,76,66,78,,,,,,1.06,0.61,0.87*11
$GPGSV,4,1,14,193,77,064,37,20,74,025,35,13,70,034,28,15,68,275,41*43
$GPGSV,4,2,14,05,59,070,39,50,46,179,28,18,37,312,35,195,26,182,37*41
$GPGSV,4,3,14,24,24,185,31,29,23,243,31,30,21,048,24,02,15,156,19*7E
$GPGSV,4,4,14,23,13,295,30,194,13,154,20*4E
$GLGSV,3,1,11,67,52,016,19,83,51,295,31,82,46,215,43,68,41,294,39*6A
$GLGSV,3,2,11,77,28,100,,76,19,045,31,66,14,061,18,78,07,150,30*61
$GLGSV,3,3,11,81,07,180,,84,06,338,,69,01,263,*59
$GNRMC,131810.000,A,3737.2299,N,12703.2672,E,0.09,357.24,270521,,,D*74
$GNVTG,357.24,T,,M,0.09,N,0.17,K,D*2E
$GNGGA,131811.000,3737.2299,N,12703.2672,E,2,20,0.59,34.9,M,19.6,M,,*42
$GPGSA,A,3,193,05,18,15,195,23,24,02,194,20,13,30,0.88,0.59,0.66*3A
$GLGSA,A,3,67,83,82,68,76,66,78,,,,,,0.88,0.59,0.66*12
$GNRMC,131811.000,A,3737.2299,N,12703.2672,E,0.09,357.24,270521,,,D*75
$GNVTG,357.24,T,,M,0.09,N,0.17,K,D*2E
$GNGGA,131812.000,3737.2299,N,12703.2672,E,2,20,0.61,34.9,M,19.6,M,,*4A
$GPGSA,A,3,193,05,18,15,195,23,24,02,194,20,13,30,1.06,0.61,0.87*39
$GLGSA,A,3,67,83,82,68,76,66,78,,,,,,1.06,0.61,0.87*11
$GNRMC,131812.000,A,3737.2299,N,12703.2672,E,0.06,357.24,270521,,,D*79
$GNVTG,357.24,T,,M,0.06,N,0.11,K,D*27
$GNGGA,131813.000,3737.2299,N,12703.2672,E,2,20,0.59,35.0,M,19.6,M,,*48
$GPGSA,A,3,193,05,18,15,195,23,24,02,194,20,13,30,0.88,0.59,0.66*3A
$GLGSA,A,3,67,83,82,68,76,66,78,,,,,,0.88,0.59,0.66*12
$GNRMC,131813.000,A,3737.2299,N,12703.2672,E,0.07,357.24,270521,,,D*79
$GNVTG,357.24,T,,M,0.07,N,0.14,K,D*23
$GNGGA,131814.000,3737.2299,N,12703.2672,E,2,20,0.59,35.0,M,19.6,M,,*4F
$GPGSA,A,3,193,05,18,15,195,23,24,02,194,20,13,30,0.88,0.59,0.66*3A
$GLGSA,A,3,67,83,82,68,76,66,78,,,,,,0.88,0.59,0.66*12
$GNRMC,131814.000,A,3737.2299,N,12703.2672,E,0.22,357.24,270521,,,D*79
$GNVTG,357.24,T,,M,0.22,N,0.42,K,D*27
$GNGGA,131815.000,3737.2299,N,12703.2672,E,2,20,0.59,35.0,M,19.6,M,,*4E
$GPGSA,A,3,193,05,18,15,195,23,24,02,194,20,13,30,0.88,0.59,0.66*3A
$GLGSA,A,3,67,83,82,68,76,66,78,,,,,,0.88,0.59,0.66*12
$GPGSV,4,1,14,193,77,064,37,20,74,025,35,13,70,034,29,15,68,275,41*42
$GPGSV,4,2,14,05,59,070,38,50,46,179,28,18,37,312,36,195,26,182,37*43
$GPGSV,4,3,14,24,24,185,31,29,23,243,29,30,21,048,23,02,15,156,19*70
$GPGSV,4,4,14,23,13,295,29,194,13,154,19*4C
$GLGSV,3,1,11,67,52,016,25,83,51,295,31,82,46,215,42,68,41,294,39*64
$GLGSV,3,2,11,77,28,100,,76,19,045,27,66,13,062,21,78,07,150,30*68
$GLGSV,3,3,11,81,07,180,,84,06,338,,69,01,263,*59
$GNRMC,131815.000,A,3737.2299,N,12703.2672,E,0.13,357.24,270521,,,D*7A
$GNVTG,357.24,T,,M,0.13,N,0.24,K,D*25
$GNGGA,131816.000,3737.2299,N,12703.2672,E,2,20,0.59,34.9,M,19.6,M,,*45
$GPGSA,A,3,193,05,18,15,195,23,24,02,194,20,13,30,0.88,0.59,0.66*3A
$GLGSA,A,3,67,83,82,68,76,66,78,,,,,,0.88,0.59,0.66*12
$GNRMC,131816.000,A,3737.2299,N,12703.2672,E,0.09,357.24,270521,,,D*72
$GNVTG,357.24,T,,M,0.09,N,0.17,K,D*2E
$GNGGA,131817.000,3737.2299,N,12703.2672,E,2,19,0.62,34.9,M,19.6,M,,*46
$GPGSA,A,3,193,05,18,15,195,23,24,194,20,13,30,29,1.07,0.62,0.87*32
$GLGSA,A,3,67,83,82,68,76,66,78,,,,,,1.07,0.62,0.87*13
$GNRMC,131817.000,A,3737.2299,N,12703.2672,E,0.08,357.24,270521,,,D*72
$GNVTG,357.24,T,,M,0.08,N,0.16,K,D*2E
$GNGGA,131818.000,3737.2299,N,12703.2672,E,2,19,0.61,35.0,M,19.6,M,,*42
$GPGSA,A,3,193,05,18,15,195,23,24,194,20,13,30,29,0.90,0.61,0.66*31
$GLGSA,A,3,67,83,82,68,76,66,78,,,,,,0.90,0.61,0.66*10
$GNRMC,131818.000,A,3737.2299,N,12703.2672,E,0.13,357.24,270521,,,D*77
$GNVTG,357.24,T,,M,0.13,N,0.24,K,D*25
$GNGGA,131819.000,3737.2299,N,12703.2672,E,2,20,0.61,35.1,M,19.6,M,,*48
$GPGSA,A,3,193,05,18,15,195,23,24,02,194,20,13,30,1.06,0.61,0.87*39
$GLGSA,A,3,67,83,82,68,76,66,78,,,,,,1.06,0.61,0.87*11
$GNRMC,131819.000,A,3737.2299,N,12703.2672,E,0.11,357.24,270521,,,D*74
$GNVTG,357.24,T,,M,0.11,N,0.21,K,D*22
$GNGGA,131820.000,3737.2299,N,12703.2673,E,2,20,0.59,35.1,M,19.6,M,,*48
$GPGSA,A,3,193,05,18,15,195,23,24,02,194,20,13,30,0.88,0.59,0.66*3A
$GLGSA,A,3,67,83,82,68,76,66,78,,,,,,0.88,0.59,0.66*12
$GPGSV,4,1,14,193,77,064,37,20,74,025,35,13,70,034,27,15,68,275,42*4F
$GPGSV,4,2,14,05,59,070,38,50,46,179,29,18,37,312,37,195,26,182,37*43
$GPGSV,4,3,14,24,24,185,32,29,23,243,25,30,21,048,24,02,15,156,17*76
$GPGSV,4,4,14,23,13,295,26,194,13,154,18*42
$GLGSV,3,1,11,67,52,018,17,83,51,295,31,82,46,215,42,68,41,295,40*64
$GLGSV,3,2,11,77,28,100,,76,19,045,20,66,13,062,25,78,07,150,29*63
$GLGSV,3,3,11,81,07,180,,84,06,338,,69,01,264,*5E
$GNRMC,131820.000,A,3737.2299,N,12703.2673,E,0.10,357.24,270521,,,D*7E
$GNVTG,357.24,T,,M,0.10,N,0.18,K,D*29
$GNGGA,131821.000,3737.2300,N,12703.2673,E,2,20,0.59,35.1,M,19.6,M,,*48
$GPGSA,A,3,193,05,18,15,195,23,24,02,194,20,13,30,0.88,0.59,0.66*3A
$GLGSA,A,3,67,83,82,68,76,66,78,,,,,,0.88,0.59,0.66*12
$GNRMC,131821.000,A,3737.2300,N,12703.2673,E,0.17,357.24,270521,,,D*79
$GNVTG,357.24,T,,M,0.17,N,0.32,K,D*26
$GNGGA,131822.000,3737.2300,N,12703.2673,E,2,20,0.59,35.0,M,19.6,M,,*4A
$GPGSA,A,3,193,05,18,15,195,23,24,02,194,20,13,30,0.88,0.59,0.66*3A
$GLGSA,A,3,67,83,82,68,76,66,78,,,,,,0.88,0.59,0.66*12
$GNRMC,131822.000,A,3737.2300,N,12703.2673,E,0.10,357.24,270521,,,D*7D
$GNVTG,357.24,T,,M,0.10,N,0.18,K,D*29
$GNGGA,131823.000,3737.2300,N,12703.2673,E,2,19,0.61,35.1,M,19.6,M,,*4B
$GPGSA,A,3,193,05,18,15,195,23,24,194,20,13,30,29,0.90,0.61,0.66*31
$GLGSA,A,3,67,83,82,68,76,66,78,,,,,,0.90,0.61,0.66*10
$GNRMC,131823.000,A,3737.2300,N,12703.2673,E,0.33,357.24,270521,,,D*7D
$GNVTG,357.24,T,,M,0.33,N,0.61,K,D*26
,67,83,82,68,76,66,78,,,,,,1.06,0.61,0.87*11
$GNRMC,132206.000,A,3737.2304,N,12703.2672,E,0.02,2.03,270521,,,D*72
$GNVTG,2.03,T,,M,0.02,N,0.03,K,D*26
$GNGGA,132207.000,3737.2304,N,12703.2672,E,2,19,0.62,32.6,M,19.6,M,,*42
$GPGSA,A,3,193,05,18,15,195,23,24,02,20,30,29,13,1.08,0.62,0.88*0C
$GLGSA,A,3,67,83,82,68,76,66,78,,,,,,1.08,0.62,0.88*13
$GNRMC,132207.000,A,3737.2304,N,12703.2672,E,0.02,2.03,270521,,,D*73
$GNVTG,2.03,T,,M,0.02,N,0.03,K,D*26
$GNGGA,132208.000,3737.2304,N,12703.2672,E,2,20,0.61,32.6,M,19.6,M,,*44
$GPGSA,A,3,193,05,18,15,195,23,24,02,20,194,30,29,1.06,0.61,0.87*30
$GLGSA,A,3,67,83,82,68,76,66,78,,,,,,1.06,0.61,0.87*11
$GNRMC,132208.000,A,3737.2304,N,12703.2672,E,0.02,2.03,270521,,,D*7C
$GNVTG,2.03,T,,M,0.02,N,0.04,K,D*21
$GNGGA,132209.000,3737.2304,N,12703.2672,E,2,20,0.61,32.6,M,19.6,M,,*45
$GPGSA,A,3,193,05,18,15,195,23,24,02,20,194,30,29,1.06,0.61,0.87*30
$GLGSA,A,3,67,83,82,68,76,66,78,,,,,,1.06,0.61,0.87*11
$GNRMC,132209.000,A,3737.2304,N,12703.2672,E,0.01,2.03,270521,,,D*7E
$GNVTG,2.03,T,,M,0.01,N,0.02,K,D*24
$GNGGA,132210.000,3737.2304,N,12703.2672,E,2,20,0.61,32.5,M,19.6,M,,*4E
$GPGSA,A,3,193,05,18,15,195,23,24,02,20,194,30,29,1.06,0.61,0.87*30
$GLGSA,A,3,67,83,82,68,76,66,78,,,,,,1.06,0.61,0.87*11
$GPGSV,4,1,14,193,76,064,36,20,74,032,36,15,70,279,36,13,68,035,36*44
$GPGSV,4,2,14,05,58,073,40,50,46,179,27,18,39,311,35,24,25,185,34*73
$GPGSV,4,3,14,195,25,183,33,29,21,241,29,30,20,047,18,23,15,296,26*48
$GPGSV,4,4,14,194,14,154,18,02,13,157,18*46
$GLGSV,3,1,11,67,51,019,33,83,51,291,19,82,44,214,44,68,42,296,34*68
$GLGSV,3,2,11,77,29,098,,76,19,043,34,66,13,062,18,78,09,149,26*66
$GLGSV,3,3,11,84,07,338,,81,05,180,,69,02,265,*5F
$GNRMC,132210.000,A,3737.2304,N,12703.2672,E,0.01,2.03,270521,,,D*76
$GNVTG,2.03,T,,M,0.01,N,0.02,K,D*24
$GNGGA,132211.000,3737.2304,N,12703.2672,E,2,20,0.61,32.5,M,19.6,M,,*4F
$GPGSA,A,3,193,05,18,15,195,23,24,02,20,194,30,29,1.06,0.61,0.87*30
$GLGSA,A,3,67,83,82,68,76,66,78,,,,,,1.06,0.61,0.87*11
$GNRMC,132211.000,A,3737.2304,N,12703.2672,E,0.05,2.03,270521,,,D*73
$GNVTG,2.03,T,,M,0.05,N,0.09,K,D*2B
$GNGGA,132212.000,3737.2304,N,12703.2672,E,2,19,0.62,32.5,M,19.6,M,,*45
$GPGSA,A,3,193,05,18,15,195,23,24,20,194,30,29,13,1.08,0.62,0.88*32
$GLGSA,A,3,67,83,82,68,76,66,78,,,,,,1.08,0.62,0.88*13
$GNRMC,132212.000,A,3737.2304,N,12703.2672,E,0.03,2.03,270521,,,D*76
$GNVTG,2.03,T,,M,0.03,N,0.06,K,D*22
$GNGGA,132213.000,3737.2304,N,12703.2671,E,2,20,0.61,32.5,M,19.6,M,,*4E
$GPGSA,A,3,193,05,18,15,195,23,24,02,20,194,30,29,1.06,0.61,0.87*30
$GLGSA,A,3,67,83,82,68,76,66,78,,,,,,1.06,0.61,0.87*11
$GNRMC,132213.000,A,3737.2304,N,12703.2671,E,0.02,2.03,270521,,,D*75
$GNVTG,2.03,T,,M,0.02,N,0.04,K,D*21
$GNGGA,132214.000,3737.2304,N,12703.2671,E,2,20,0.59,32.5,M,19.6,M,,*42
$GPGSA,A,3,193,05,18,15,195,23,24,02,20,194,30,29,0.89,0.59,0.66*32
$GLGSA,A,3,67,83,82,68,76,66,78,,,,,,0.89,0.59,0.66*13
$GNRMC,132214.000,A,3737.2304,N,12703.2671,E,0.06,2.03,270521,,,D*76
$GNVTG,2.03,T,,M,0.06,N,0.12,K,D*22
$GNGGA,132215.000,3737.2304,N,12703.2671,E,2,20,0.61,32.5,M,19.6,M,,*48
$GPGSA,A,3,193,05,18,15,195,23,24,02,20,194,30,29,1.06,0.61,0.87*30
$GLGSA,A,3,67,83,82,68,76,66,78,,,,,,1.06,0.61,0.87*11
$GPGSV,4,1,14,193,76,064,35,20,74,032,36,15,70,279,36,13,68,035,36*47
$GPGSV,4,2,14,05,58,073,39,42,44,158,,18,39,311,35,24,25,185,34*7A
$GPGSV,4,3,14,195,25,183,33,29,21,241,28,30,20,047,26,23,15,296,25*47
$GPGSV,4,4,14,194,14,154,18,02,13,157,23*4E
$GLGSV,3,1,11,67,51,021,31,83,51,291,19,82,44,214,42,68,42,298,34*69
$GLGSV,3,2,11,77,29,098,,76,19,043,34,66,12,063,20,78,09,149,22*69
$GLGSV,3,3,11,84,07,338,,81,05,180,,69,02,265,*5F
$GNRMC,132215.000,A,3737.2304,N,12703.2671,E,0.01,2.03,270521,,,D*70
$GNVTG,2.03,T,,M,0.01,N,0.03,K,D*25
$GNGGA,132216.000,3737.2304,N,12703.2671,E,2,19,0.64,32.5,M,19.6,M,,*44
$GPGSA,A,3,193,05,18,15,195,23,24,02,20,194,30,29,1.12,0.64,0.92*34
$GLGSA,A,3,67,83,82,68,76,78,,,,,,,1.12,0.64,0.92*15
$GNRMC,132216.000,A,3737.2304,N,12703.2671,E,0.01,2.03,270521,,,D*73
$GNVTG,2.03,T,,M,0.01,N,0.02,K,D*24
$GNGGA,132217.000,3737.2304,N,12703.2671,E,2,20,0.61,32.5,M,19.6,M,,*4A
$GPGSA,A,3,193,05,18,15,195,23,24,02,20,194,30,29,1.06,0.61,0.87*30
$GLGSA,A,3,67,83,82,68,76,66,78,,,,,,1.06,0.61,0.87*11
$GNRMC,132217.000,A,3737.2304,N,12703.2671,E,0.01,2.03,270521,,,D*72
$GNVTG,2.03,T,,M,0.01,N,0.02,K,D*24
$GNGGA,132218.000,3737.2304,N,12703.2671,E,2,20,0.61,32.5,M,19.6,M,,*45
$GPGSA,A,3,193,05,18,15,195,23,24,02,20,194,30,29,1.06,0.61,0.87*30
$GLGSA,A,3,67,83,82,68,76,66,78,,,,,,1.06,0.61,0.87*11
$GNRMC,132218.000,A,3737.2304,N,12703.2671,E,0.04,2.03,270521,,,D*78
$GNVTG,2.03,T,,M,0.04,N,0.08,K,D*2B
$GNGGA,132219.000,3737.2303,N,12703.2671,E,2,20,0.61,32.5,M,19.6,M,,*43
$GPGSA,A,3,193,05,18,15,195,23,24,02,20,194,30,29,1.06,0.61,0.87*30
$GLGSA,A,3,67,83,82,68,76,66,78,,,,,,1.06,0.61,0.87*11
$GNRMC,132219.000,A,3737.2303,N,12703.2671,E,0.02,2.03,270521,,,D*78
$GNVTG,2.03,T,,M,0.02,N,0.04,K,D*21
$GNGGA,132220.000,3737.2303,N,12703.2671,E,2,20,0.61,32.4,M,19.6,M,,*48
$GPGSA,A,3,193,05,18,15,195,23,24,02,20,194,30,29,1.06,0.61,0.87*30
$GLGSA,A,3,67,83,82,68,76,66,78,,,,,,1.06,0.61,0.87*11
$GPGSV,4,1,14,193,76,064,36,20,74,032,36,15,70,279,34,13,68,035,35*45
$GPGSV,4,2,14,05,58,073,41,42,44,158,,18,39,311,34,24,25,185,34*74
$GPGSV,4,3,14,195,25,183,32,29,21,241,27,30,20,047,20,23,15,296,23*49
$GPGSV,4,4,14,194,14,154,18,02,13,157,18*46
$GLGSV,3,1,11,67,51,021,35,83,51,291,22,82,44,214,42,68,42,298,36*67
$GLGSV,3,2,11,77,29,098,,76,19,043,34,66,12,063,18,78,09,149,19*6A
$GLGSV,3,3,11,84,07,338,,81,05,180,,69,02,266,*5C
$GNRMC,132220.000,A,3737.2303,N,12703.2671,E,0.04,2.03,270521,,,D*74
$GNVTG,2.03,T,,M,0.04,N,0.08,K,D*2B
$GNGGA,132221.000,3737.2303,N,12703.2671,E,2,20,0.61,32.5,M,19.6,M,,*48
$GPGSA,A,3,193,05,18,15,195,23,24,02,20,194,30,29,1.06,0.61,0.87*30
$GLGSA,A,3,67,83,82,68,76,66,78,,,,,,1.06,0.61,0.87*11
$GNRMC,132221.000,A,3737.2303,N,12703.2671,E,0.01,2.03,270521,,,D*70
$GNVTG,2.03,T,,M,0.01,N,0.03,K,D*25
$GNGGA,132222.000,3737.2303,N,12703.2671,E,2,20,0.59,32.5,M,19.6,M,,*40
$GPGSA,A,3,193,05,18,15,195,23,24,02,20,194,30,29,0.88,0.59,0.66*33
$GLGSA,A,3,67,83,82,68,76,66,78,,,,,,0.88,0.59,0.66*12
$GNRMC,132222.000,A,3737.2303,N,12703.2671,E,0.04,2.03,270521,,,D*76
$GNVTG,2.03,T,,M,0.04,N,0.07,K,D*24
$GNGGA,132223.000,3737.2303,N,12703.2671,E,2,20,0.61,32.5,M,19.6,M,,*4A
$GPGSA,A,3,193,05,18,15,195,23,24,02,20,194,30,29,1.06,0.61,0.87*30
$GLGSA,A,3,67,83,82,68,76,66,78,,,,,,1.06,0.61,0.87*11
$GNRMC,132223.000,A,3737.2303,N,12703.2671,E,0.02,2.03,270521,,,D*71
$GNVTG,2.03,T,,M,0.02,N,0.03,K,D*26
$GNGGA,132224.000,3737.2303,N,12703.2671,E,2,20,0.61,32.4,M,19.6,M,,*4C
$GPGSA,A,3,193,05,18,15,195,23,24,02,20,194,30,29,1.06,0.61,0.87*30
$GLGSA,A,3,67,83,82,68,76,66,78,,,,,,1.06,0.61,0.87*11
$GNRMC,132224.000,A,3737.2303,N,12703.2671,E,0.02,2.03,270521,,,D*76
$GNVTG,2.03,T,,M,0.02,N,0.04,K,D*21
$GNGGA,132225.000,3737.2303,N,12703.2671,E,2,19,0.64,32.5,M,19.6,M,,*43
$GPGSA,A,3,193,05,18,15,195,23,24,02,20,194,30,29,1.12,0.64,0.92*34
$GLGSA,A,3,67,83,82,68,76,78,,,,,,,1.12,0.64,0.92*15
$GPGSV,4,1,14,193,76,064,36,20,74,032,37,15,70,279,34,13,68,035,36*47
$GPGSV,4,2,14,05,58,073,40,18,39,311,34,41,26,237,,24,25,185,34*78
$GPGSV,4,3,14,195,25,183,31,29,21,241,25,30,20,047,18,23,15,296,19*4A
$GPGSV,4,4,14,194,14,154,20,02,13,157,21*47
$GLGSV,3,1,11,67,51,021,32,83,51,291,23,82,44,214,42,68,42,298,36*61
$GLGSV,3,2,11,77,30,097,,76,19,042,35,66,12,063,17,78,09,149,21*69
$GLGSV,3,3,11,84,07,338,,81,05,180,,69,02,266,*5C
$GNRMC,132225.000,A,3737.2303,N,12703.2671,E,0.01,2.03,270521,,,D*74
$GNVTG,2.03,T,,M,0.01,N,0.01,K,D*27
$GNGGA,132226.000,3737.2303,N,12703.2671,E,2,18,0.71,32.5,M,19.6,M,,*45
$GPGSA,A,3,193,05,18,15,195,24,02,20,194,30,29,13,1.27,0.71,1.05*3A
$GLGSA,A,3,67,83,82,68,76,78,,,,,,,1.27,0.71,1.05*18
$GNRMC,132226.000,A,3737.2303,N,12703.2671,E,0.05,2.03,270521,,,D*73
$GNVTG,2.03,T,,M,0.05,N,0.10,K,D*23
$GNGGA,132227.000,3737.2303,N,12703.2671,E,2,19,0.64,32.5,M,19.6,M,,*41
$GPGSA,A,3,193,05,18,15,195,23,24,02,20,194,30,29,1.12,0.64,0.92*34
$GLGSA,A,3,67,83,82,68,76,78,,,,,,,1.12,0.64,0.92*15
$GNRMC,132227.000,A,3737.2303,N,12703.2671,E,0.01,2.03,270521,,,D*76
$GNVTG,2.03,T,,M,0.01,N,0.02,K,D*24
$GNGGA,132228.000,3737.2303,N,12703.2671,E,2,20,0.59,32.5,M,19.6,M,,*4A
$GPGSA,A,3,193,05,18,15,195,23,24,02,20,194,30,29,0.89,0.59,0.66*32
$GLGSA,A,3,67,83,82,68,76,66,78,,,,,,0.89,0.59,0.66*13
$GNRMC,132228.000,A,3737.2303,N,12703.2671,E,0.02,2.03,270521,,,D*7A
$GNVTG,2.03,T,,M,0.02,N,0.04,K,D*21
$GNGGA,132229.000,3737.2303,N,12703.2671,E,2,19,0.63,32.5,M,19.6,M,,*48
$GPGSA,A,3,193,05,18,15,195,23,24,02,20,194,29,13,1.10,0.63,0.90*32
$GLGSA,A,3,67,83,82,68,76,66,78,,,,,,1.10,0.63,0.90*12
$GNRMC,132229.000,A,3737.2303,N,12703.2671,E,0.01,2.03,270521,,,D*78
$GNVTG,2.03,T,,M,0.01,N,0.01,K,D*27
$GNGGA,132230.000,3737.2303,N,12703.2671,E,2,18,0.69,32.5,M,19.6,M,,*4B
$GPGSA,A,3,193,05,18,15,195,23,24,02,20,194,29,13,1.21,0.69,0.99*33
$GLGSA,A,3,67,83,82,68,76,78,,,,,,,1.21,0.69,0.99*13
$GPGSV,4,1,14,193,76,064,36,20,74,032,37,15,70,279,33,13,68,035,37*41
$GPGSV,4,2,14,05,58,073,40,18,39,311,34,41,26,237,,24,25,185,35*79
$GPGSV,4,3,14,195,25,183,32,29,21,241,24,30,20,047,20,23,15,296,18*42
$GPGSV,4,4,14,194,14,154,18,02,13,157,23*4E
$GLGSV,3,1,11,67,51,021,31,83,51,289,21,68,42,298,36,82,42,213,42*68
$GLGSV,3,2,11,77,30,097,,76,19,042,34,66,12,063,22,78,09,149,24*6B
$GLGSV,3,3,11,84,07,338,,81,04,180,,69,02,266,*5D
$GNRMC,132230.000,A,3737.2303,N,12703.2671,E,0.01,2.03,270521,,,D*70
$GNVTG,2.03,T,,M,0.01,N,0.02,K,D*24
$GNGGA,132231.000,3737.2303,N,12703.2671,E,2,18,0.67,32.5,M,19.6,M,,*44
$GPGSA,A,3,193,05,18,15,195,23,24,02,20,194,29,13,0.97,0.67,0.70*36
$GLGSA,A,3,67,83,82,68,76,78,,,,,,,0.97,0.67,0.70*16
$GNRMC,132231.000,A,3737.2303,N,12703.2671,E,0.01,2.03,270521,,,D*71
$GNVTG,2.03,T,,M,0.01,N,0.02,K,D*24
$GNGGA,132232.000,3737.2303,N,12703.2671,E,2,19,0.62,32.5,M,19.6,M,,*43
$GPGSA,A,3,193,05,18,15,195,23,24,02,20,194,29,13,0.91,0.62,0.67*33
$GLGSA,A,3,67,83,82,68,76,66,78,,,,,,0.91,0.62,0.67*13
$GNRMC,132232.000,A,3737.2303,N,12703.2671,E,0.02,2.03,270521,,,D*71
$GNVTG,2.03,T,,M,0.02,N,0.04,K,D*21
$GNGGA,132233.000,3737.2303,N,12703.2671,E,2,19,0.62,32.5,M,19.6,M,,*42
$GPGSA,A,3,193,05,18,15,195,23,24,02,20,194,29,13,0.91,0.62,0.67*33
$GLGSA,A,3,67,83,82,68,76,66,78,,,,,,0.91,0.62,0.67*13
$GNRMC,132233.000,A,3737.2303,N,12703.2671,E,0.04,2.03,270521,,,D*76
$GNVTG,2.03,T,,M,0.04,N,0.08,K,D*2B
$GNGGA,132234.000,3737.2303,N,12703.2671,E,2,19,0.62,32.5,M,19.6,M,,*45
$GPGSA,A,3,193,05,18,15,195,23,24,02,20,194,29,13,0.91,0.62,0.67*33
$GLGSA,A,3,67,83,82,68,76,66,78,,,,,,0.91,0.62,0.67*13
$GNRMC,132234.000,A,3737.2303,N,12703.2671,E,0.01,2.03,270521,,,D*74
$GNVTG,2.03,T,,M,0.01,N,0.02,K,D*24
$GNGGA,132235.000,3737.2303,N,12703.2670,E,2,19,0.62,32.5,M,19.6,M,,*45
$GPGSA,A,3,193,05,18,15,195,23,24,02,20,194,29,13,0.91,0.62,0.67*33
$GLGSA,A,3,67,83,82,68,76,66,78,,,,,,0.91,0.62,0.67*13
$GPGSV,4,1,14,193,76,064,36,20,74,032,38,15,70,279,34,13,68,035,37*49
$GPGSV,4,2,14,05,58,073,40,18,39,311,32,41,26,237,,24,25,185,35*7F
$GPGSV,4,3,14,195,25,183,33,29,21,241,21,30,20,047,20,23,15,296,21*4C
$GPGSV,4,4,14,194,14,154,18,02,13,157,24*49
$GLGSV,3,1,11,67,51,021,26,83,51,289,19,68,42,298,34,82,42,213,42*67
$GLGSV,3,2,11,77,30,097,,76,19,042,32,66,12,063,14,78,09,149,28*64
$GLGSV,3,3,11,84,08,337,,81,04,180,,69,02,266,*5D
$GNRMC,132235.000,A,3737.2303,N,12703.2670,E,0.02,2.03,270521,,,D*77
$GNVTG,2.03,T,,M,0.02,N,0.04,K,D*21
$GNGGA,132236.000,3737.2303,N,12703.2670,E,2,19,0.63,32.5,M,19.6,M,,*47
$GPGSA,A,3,193,05,18,15,195,23,24,02,20,194,29,13,1.10,0.63,0.90*32
$GLGSA,A,3,67,83,82,68,76,66,78,,,,,,1.10,0.63,0.90*12
$GNRMC,132236.000,A,3737.2303,N,12703.2670,E,0.05,2.03,270521,,,D*73
$GNVTG,2.03,T,,M,0.05,N,0.09,K,D*2B
$GNGGA,132237.000,3737.2303,N,12703.2670,E,2,19,0.62,32.4,M,19.6,M,,*46
$GPGSA,A,3,193,05,18,15,195,23,24,02,20,194,29,13,0.91,0.62,0.67*33
$GLGSA,A,3,67,83,82,68,76,66,78,,,,,,0.91,0.62,0.67*13
$GNRMC,132237.000,A,3737.2303,N,12703.2670,E,0.02,2.03,270521,,,D*75
$GNVTG,2.03,T,,M,0.02,N,0.05,K,D*20
$GNGGA,132238.000,3737.2303,N,12703.2670,E,2,19,0.63,32.5,M,19.6,M,,*49
$GPGSA,A,3,193,05,18,15,195,23,24,02,20,194,29,13,1.10,0.63,0.90*32
$GLGSA,A,3,67,83,82,68,76,66,78,,,,,,1.10,0.63,0.90*12
$GNRMC,132238.000,A,3737.2303,N,12703.2670,E,0.03,2.03,270521,,,D*7B
$GNVTG,2.03,T,,M,0.03,N,0.05,K,D*21
$GNGGA,132239.000,3737.2303,N,12703.2670,E,2,19,0.63,32.5,M,19.6,M,,*48
$GPGSA,A,3,193,05,18,15,195,23,24,02,20,194,29,13,1.10,0.63,0.90*32
$GLGSA,A,3,67,83,82,68,76,66,78,,,,,,1.10,0.63,0.90*12
$GNRMC,132239.000,A,3737.2303,N,12703.2670,E,0.05,2.03,270521,,,D*7C
$GNVTG,2.03,T,,M,0.05,N,0.09,K,D*2B
$GNGGA,132240.000,3737.2303,N,12703.2670,E,2,19,0.62,32.3,M,19.6,M,,*41
$GPGSA,A,3,193,05,18,15,195,23,24,02,20,194,29,13,0.91,0.62,0.67*33
$GLGSA,A,3,67,83,82,68,76,66,78,,,,,,0.91,0.62,0.67*13
$GPGSV,4,1,14,193,76,064,37,20,74,032,39,15,70,279,33,13,68,035,36*4F
$GPGSV,4,2,14,05,58,073,40,18,39,311,31,24,25,185,35,195,25,183,32*4A
$GPGSV,4,3,14,29,21,241,20,30,20,047,20,23,15,296,22,194,14,154,22*47
$GPGSV,4,4,14,02,13,157,29,44,13,251,*70
$GLGSV,3,1,11,67,51,021,30,83,51,289,19,68,42,298,32,82,42,213,42*66
$GLGSV,3,2,11,77,30,097,,76,19,042,30,66,12,063,14,78,09,149,28*66
$GLGSV,3,3,11,84,08,337,,81,04,180,,69,02,266,*5D
$GNRMC,132240.000,A,3737.2303,N,12703.2670,E,0.12,2.03,270521,,,D*74
$GNVTG,2.03,T,,M,0.12,N,0.22,K,D*24
$GNGGA,132241.000,3737.2303,N,12703.2670,E,2,20,0.62,32.5,M,19.6,M,,*4C
$GPGSA,A,3,193,05,18,15,195,23,24,02,20,194,30,29,0.91,0.62,0.67*32
$GLGSA,A,3,67,83,82,68,76,66,78,,,,,,0.91,0.62,0.67*13
$GNRMC,132241.000,A,3737.2303,N,12703.2670,E,0.02,2.03,270521,,,D*74
$GNVTG,2.03,T,,M,0.02,N,0.03,K,D*26
$GNGGA,132242.000,3737.2302,N,12703.2670,E,2,19,0.69,32.5,M,19.6,M,,*4F
$GPGSA,A,3,193,05,18,15,195,23,24,02,20,194,30,29,1.19,0.69,0.97*37
$GLGSA,A,3,67,83,82,68,66,78,,,,,,,1.19,0.69,0.97*17
$GNRMC,132242.000,A,3737.2302,N,12703.2670,E,0.19,2.03,270521,,,D*7C
$GNVTG,2.03,T,,M,0.19,N,0.35,K,D*29
$GNGGA,132243.000,3737.2303,N,12703.2670,E,2,18,0.69,32.4,M,19.6,M,,*4F
$GPGSA,A,3,193,05,18,15,195,23,24,02,20,194,29,13,1.19,0.69,0.97*36
$GLGSA,A,3,67,83,82,68,66,78,,,,,,,1.19,0.69,0.97*17
$GNRMC,132243.000,A,3737.2303,N,12703.2670,E,0.10,2.03,270521,,,D*75
$GNVTG,2.03,T,,M,0.10,N,0.19,K,D*2E
$GNGGA,132244.000,3737.2303,N,12703.2670,E,2,19,0.64,32.3,M,19.6,M,,*43
$GPGSA,A,3,193,05,18,15,195,23,24,02,20,194,30,29,1.11,0.64,0.91*34
$GLGSA,A,3,67,83,82,68,66,78,,,,,,,1.11,0.64,0.91*14
$GNRMC,132244.000,A,3737.2303,N,12703.2670,E,0.04,2.03,270521,,,D*77
$GNVTG,2.03,T,,M,0.04,N,0.08,K,D*2B
$GNGGA,132245.000,3737.2303,N,12703.2670,E,2,19,0.64,32.2,M,19.6,M,,*43
$GPGSA,A,3,193,05,18,15,195,23,24,02,20,194,30,29,1.11,0.64,0.91*34
$GLGSA,A,3,67,83,82,68,66,78,,,,,,,1.11,0.64,0.91*14
$GPGSV,4,1,14,193,76,064,37,20,74,032,39,15,70,279,34,13,68,035,37*49
$GPGSV,4,2,14,05,58,073,40,18,39,311,32,24,25,185,35,195,25,183,31*4A
$GPGSV,4,3,14,29,21,241,20,30,20,047,18,23,15,296,24,194,14,154,23*4B
$GPGSV,4,4,14,02,13,157,29,44,13,251,*70
$GLGSV,3,1,11,67,51,021,32,83,51,289,18,68,42,298,33,82,42,213,42*64
$GLGSV,3,2,11,77,30,097,,76,19,042,,66,12,063,26,78,09,149,26*6A
$GLGSV,3,3,11,84,08,337,,81,04,180,,69,02,266,*5D
$GNRMC,132245.000,A,3737.2303,N,12703.2670,E,0.12,2.03,270521,,,D*71
$GNVTG,2.03,T,,M,0.12,N,0.21,K,D*27
$GNGGA,132246.000,3737.2303,N,12703.2670,E,2,17,0.87,32.3,M,19.6,M,,*42
$GPGSA,A,3,193,05,18,15,195,23,24,02,20,194,29,13,1.49,0.87,1.21*3F
$GLGSA,A,3,67,83,82,68,78,,,,,,,,1.49,0.87,1.21*1E
$GNRMC,132246.000,A,3737.2303,N,12703.2670,E,0.09,2.03,270521,,,D*78
$GNVTG,2.03,T,,M,0.09,N,0.16,K,D*29
$GNGGA,132247.000,3737.2303,N,12703.2670,E,2,17,0.78,32.5,M,19.6,M,,*45
$GPGSA,A,3,193,05,18,15,195,23,24,02,20,194,29,13,1.10,0.78,0.77*31
$GLGSA,A,3,67,83,82,68,78,,,,,,,,1.10,0.78,0.77*10
$GNRMC,132247.000,A,3737.2303,N,12703.2670,E,0.10,2.03,270521,,,D*71
$GNVTG,2.03,T,,M,0.10,N,0.19,K,D*2E
$GNGGA,132248.000,3737.2303,N,12703.2670,E,2,18,0.67,32.4,M,19.6,M,,*4A
$GPGSA,A,3,193,05,18,15,195,23,24,02,20,194,30,29,0.98,0.67,0.71*39
$GLGSA,A,3,67,83,82,68,78,,,,,,,,0.98,0.67,0.71*19
$GNRMC,132248.000,A,3737.2303,N,12703.2670,E,0.10,2.03,270521,,,D*7E
$GNVTG,2.03,T,,M,0.10,N,0.19,K,D*2E
$GNGGA,132249.000,3737.2303,N,12703.2670,E,2,19,0.62,32.4,M,19.6,M,,*4F
$GPGSA,A,3,193,05,18,15,195,23,24,02,20,194,30,29,0.92,0.62,0.67*31
$GLGSA,A,3,67,83,82,68,66,78,,,,,,,0.92,0.62,0.67*11
$GNRMC,132249.000,A,3737.2303,N,12703.2670,E,0.05,2.03,270521,,,D*7B
$GNVTG,2.03,T,,M,0.05,N,0.09,K,D*2B
$GNGGA,132250.000,3737.2303,N,12703.2670,E,2,20,0.61,32.3,M,19.6,M,,*49
$GPGSA,A,3,193,05,18,15,195,23,24,02,20,194,30,29,1.06,0.61,0.87*30
$GLGSA,A,3,67,83,82,68,76,66,78,,,,,,1.06,0.61,0.87*11
$GPGSV,4,1,14,193,76,064,37,20,74,032,39,15,70,279,33,13,68,035,36*4F
$GPGSV,4,2,14,05,58,073,40,18,39,311,32,24,25,185,35,195,25,183,31*4A
$GPGSV,4,3,14,29,21,241,21,30,20,047,21,23,15,296,25,194,14,154,20*42
$GPGSV,4,4,14,02,13,157,28,40,12,252,*77
$GLGSV,3,1,11,67,51,021,23,83,51,289,19,68,42,298,33,82,42,213,41*66
$GLGSV,3,2,11,77,30,097,20,76,19,042,22,66,12,063,18,78,09,149,27*64
$GLGSV,3,3,11,84,08,337,,81,04,180,,69,02,266,*5D
$GNRMC,132250.000,A,3737.2303,N,12703.2670,E,0.24,2.03,270521,,,D*70
$GNVTG,2.03,T,,M,0.24,N,0.45,K,D*20
$GNGGA,132251.000,3737.2302,N,12703.2670,E,2,20,0.59,32.7,M,19.6,M,,*46
$GPGSA,A,3,193,05,18,15,195,23,24,02,20,194,30,29,0.89,0.59,0.66*32
$GLGSA,A,3,67,83,82,68,76,66,78,,,,,,0.89,0.59,0.66*13
$GNRMC,132251.000,A,3737.2302,N,12703.2670,E,0.04,2.03,270521,,,D*72
$GNVTG,2.03,T,,M,0.04,N,0.08,K,D*2B
$GNGGA,132252.000,3737.2302,N,12703.2670,E,2,20,0.59,32.7,M,19.6,M,,*45
$GPGSA,A,3,193,05,18,15,195,23,24,02,20,194,30,29,0.89,0.59,0.66*32
$GLGSA,A,3,67,83,82,68,76,66,78,,,,,,0.89,0.59,0.66*13
$GNRMC,132252.000,A,3737.2302,N,12703.2670,E,0.01,2.03,270521,,,D*74
$GNVTG,2.03,T,,M,0.01,N,0.02,K,D*24
$GNGGA,132253.000,3737.2302,N,12703.2670,E,2,20,0.59,32.7,M,19.6,M,,*44
$GPGSA,A,3,193,05,18,15,195,23,24,02,20,194,30,29,0.89,0.59,0.66*32
$GLGSA,A,3,67,83,82,68,76,66,78,,,,,,0.89,0.59,0.66*13
$GNRMC,132253.000,A,3737.2302,N,12703.2670,E,0.02,2.03,270521,,,D*76
$GNVTG,2.03,T,,M,0.02,N,0.03,K,D*26
$GNGGA,132254.000,3737.2302,N,12703.2670,E,2,20,0.59,32.6,M,19.6,M,,*42
$GPGSA,A,3,193,05,18,15,195,23,24,02,20,194,30,29,0.89,0.59,0.66*32
$GLGSA,A,3,67,83,82,68,76,66,78,,,,,,0.89,0.59,0.66*13
$GNRMC,132254.000,A,3737.2302,N,12703.2670,E,0.08,2.03,270521,,,D*7B
$GNVTG,2.03,T,,M,0.08,N,0.16,K,D*28
$GNGGA,132255.000,3737.2302,N,12703.2670,E,2,19,0.61,32.6,M,19.6,M,,*42
$GPGSA,A,3,193,05,18,15,195,23,24,02,20,30,29,13,0.90,0.61,0.66*0F
$GLGSA,A,3,67,83,82,68,76,66,78,,,,,,0.90,0.61,0.66*10
$GPGSV,4,1,14,193,76,064,37,20,74,032,39,15,70,279,34,13,68,035,36*48
$GPGSV,4,2,14,05,58,073,40,18,39,311,32,24,25,185,35,195,25,183,31*4A
$GPGSV,4,3,14,29,21,241,16,30,20,047,25,23,15,296,27,194,14,154,17*44
$GPGSV,4,4,14,02,13,157,21,40,12,252,*7E
$GLGSV,3,1,11,67,51,021,26,83,51,289,19,68,42,298,33,82,42,213,41*63
$GLGSV,3,2,11,77,30,097,21,76,19,042,24,66,12,063,19,78,09,149,26*63
$GLGSV,3,3,11,84,08,337,,81,04,180,,69,02,266,*5D
$GNRMC,132255.000,A,3737.2302,N,12703.2670,E,0.11,2.03,270521,,,D*72
$GNVTG,2.03,T,,M,0.11,N,0.20,K,D*25
$GNGGA,132256.000,3737.2301,N,12703.2670,E,2,20,0.59,32.8,M,19.6,M,,*4D
$GPGSA,A,3,193,05,18,15,195,23,24,02,20,194,30,29,0.89,0.59,0.66*32
$GLGSA,A,3,67,83,82,68,76,66,78,,,,,,0.89,0.59,0.66*13
$GNRMC,132256.000,A,3737.2301,N,12703.2670,E,0.05,2.03,270521,,,D*77
$GNVTG,2.03,T,,M,0.05,N,0.09,K,D*2B
$GNGGA,132257.000,3737.2301,N,12703.2670,E,2,19,0.67,32.8,M,19.6,M,,*4B
$GPGSA,A,3,193,05,18,15,195,23,24,02,20,194,30,29,0.98,0.67,0.71*39
$GLGSA,A,3,67,83,82,68,76,78,,,,,,,0.98,0.67,0.71*18
$GNRMC,132257.000,A,3737.2301,N,12703.2670,E,0.04,2.03,270521,,,D*77
$GNVTG,2.03,T,,M,0.04,N,0.08,K,D*2B
$GNGGA,132258.000,3737.2301,N,12703.2670,E,2,18,0.70,32.7,M,19.6,M,,*4C
$GPGSA,A,3,193,05,18,15,195,23,24,02,20,194,30,29,1.22,0.70,1.00*38
$GLGSA,A,3,67,83,82,68,78,,,,,,,,1.22,0.70,1.00*18
$GNRMC,132258.000,A,3737.2301,N,12703.2670,E,0.05,2.03,270521,,,D*79
$GNVTG,2.03,T,,M,0.05,N,0.09,K,D*2B
$GNGGA,132259.000,3737.2302,N,12703.2670,E,2,18,0.70,32.6,M,19.6,M,,*4F
$GPGSA,A,3,193,05,18,15,195,23,24,02,20,194,30,29,1.22,0.70,1.00*38
$GLGSA,A,3,67,83,82,68,78,,,,,,,,1.22,0.70,1.00*18
$GNRMC,132259.000,A,3737.2302,N,12703.2670,E,0.20,2.03,270521,,,D*7C
$GNVTG,2.03,T,,M,0.20,N,0.37,K,D*21
$GNGGA,132300.000,3737.2301,N,12703.2670,E,2,19,0.70,32.9,M,19.6,M,,*4F
$GPGSA,A,3,193,05,18,15,195,23,24,02,20,194,30,29,1.22,0.70,1.00*38
$GLGSA,A,3,67,83,82,68,76,78,,,,,,,1.22,0.70,1.00*19
$GPGSV,4,1,14,193,76,064,36,20,74,032,39,15,70,279,34,13,68,035,37*48
$GPGSV,4,2,14,05,58,073,39,18,39,311,31,24,25,185,34,195,25,183,31*46
$GPGSV,4,3,14,29,21,241,19,30,20,047,29,23,15,296,28,194,14,154,22*4E
$GPGSV,4,4,14,02,13,157,23,34,,,*49
$GLGSV,3,1,11,67,51,021,30,83,51,289,18,68,42,298,33,82,42,213,40*64
$GLGSV,3,2,11,77,30,097,20,76,19,042,23,66,12,063,16,78,09,149,28*64
$GLGSV,3,3,11,84,08,337,,81,04,180,,69,02,266,*5D
$GNRMC,132300.000,A,3737.2301,N,12703.2670,E,0.08,2.03,270521,,,D*78
$GNVTG,2.03,T,,M,0.08,N,0.14,K,D*2A
$GNGGA,132301.000,3737.2301,N,12703.2670,E,2,17,0.78,32.9,M,19.6,M,,*48
$GPGSA,A,3,193,05,18,15,195,23,24,02,20,194,29,13,1.10,0.78,0.77*31
$GLGSA,A,3,67,83,82,68,78,,,,,,,,1.10,0.78,0.77*10
$GNRMC,132301.000,A,3737.2301,N,12703.2670,E,0.12,2.03,270521,,,D*72
$GNVTG,2.03,T,,M,0.12,N,0.23,K,D*25
$GNGGA,132302.000,3737.2301,N,12703.2670,E,2,18,0.70,32.8,M,19.6,M,,*4D
$GPGSA,A,3,193,05,18,15,195,23,24,02,20,194,30,29,1.22,0.70,1.00*38
$GLGSA,A,3,67,83,82,68,78,,,,,,,,1.22,0.70,1.00*18
$GNRMC,132302.000,A,3737.2301,N,12703.2670,E,0.09,2.03,270521,,,D*7B
$GNVTG,2.03,T,,M,0.09,N,0.17,K,D*28
$GNGGA,132303.000,3737.2301,N,12703.2670,E,2,18,0.67,32.7,M,19.6,M,,*45
$GPGSA,A,3,193,05,18,15,195,23,24,02,20,194,29,13,0.97,0.67,0.70*36
$GLGSA,A,3,67,83,82,68,76,78,,,,,,,0.97,0.67,0.70*16
$GNRMC,132303.000,A,3737.2301,N,12703.2670,E,0.01,2.03,270521,,,D*72
$GNVTG,2.03,T,,M,0.01,N,0.02,K,D*24
$GNGGA,132304.000,3737.2301,N,12703.2670,E,2,18,0.65,32.7,M,19.6,M,,*40
$GPGSA,A,3,193,05,18,15,195,23,24,02,20,30,29,13,1.14,0.65,0.93*0C
$GLGSA,A,3,67,83,82,68,76,78,,,,,,,1.14,0.65,0.93*13
$GNRMC,132304.000,A,3737.2301,N,12703.2670,E,0.17,2.03,270521,,,D*72
$GNVTG,2.03,T,,M,0.17,N,0.32,K,D*20
$GNGGA,132305.000,3737.2301,N,12703.2670,E,2,20,0.64,32.9,M,19.6,M,,*45
$GPGSA,A,3,193,05,18,15,195,23,24,02,20,194,30,29,1.12,0.64,0.92*34
$GLGSA,A,3,67,83,82,68,76,66,78,,,,,,1.12,0.64,0.92*15
$GPGSV,4,1,14,193,76,064,36,20,74,032,39,15,70,279,35,13,68,035,37*49
$GPGSV,4,2,14,05,58,073,38,18,39,311,32,24,25,185,35,195,25,183,30*44
$GPGSV,4,3,14,29,21,241,21,30,20,047,30,23,15,296,28,194,14,154,20*4F
$GPGSV,4,4,14,02,13,157,22,35,,,*49
$GLGSV,3,1,11,67,51,021,30,83,51,289,18,68,42,298,33,82,42,213,40*64
$GLGSV,3,2,11,77,30,097,19,76,19,042,26,66,12,063,19,78,09,149,29*65
$GLGSV,3,3,11,84,08,337,,81,04,180,,69,02,266,*5D
$GNRMC,132305.000,A,3737.2301,N,12703.2670,E,0.11,2.03,270521,,,D*75
$GNVTG,2.03,T,,M,0.11,N,0.20,K,D*25
$GNGGA,132306.000,3737.2301,N,12703.2670,E,2,19,0.64,32.7,M,19.6,M,,*42
$GPGSA,A,3,193,05,18,15,195,23,24,02,20,194,30,29,1.12,0.64,0.92*34
$GLGSA,A,3,67,83,82,68,76,78,,,,,,,1.12,0.64,0.92*15
$GNRMC,132306.000,A,3737.2301,N,12703.2670,E,0.13,2.03,270521,,,D*74
$GNVTG,2.03,T,,M,0.13,N,0.24,K,D*23
$GNGGA,132307.000,3737.2301,N,12703.2670,E,2,19,0.62,32.9,M,19.6,M,,*4B
$GPGSA,A,3,193,05,18,15,195,23,24,02,20,194,30,29,0.92,0.62,0.68*3E
$GLGSA,A,3,67,83,82,68,76,78,,,,,,,0.92,0.62,0.68*1F
$GNRMC,132307.000,A,3737.2301,N,12703.2670,E,0.06,2.03,270521,,,D*71
$GNVTG,2.03,T,,M,0.06,N,0.11,K,D*21
$GNGGA,132308.000,3737.2300,N,12703.2670,E,2,19,0.64,33.0,M,19.6,M,,*4B
$GPGSA,A,3,193,05,18,15,195,23,24,02,20,194,30,29,1.12,0.64,0.92*34
$GLGSA,A,3,67,83,82,68,76,78,,,,,,,1.12,0.64,0.92*15
$GNRMC,132308.000,A,3737.2300,N,12703.2670,E,0.14,2.03,270521,,,D*7C
$GNVTG,2.03,T,,M,0.14,N,0.26,K,D*26
$GNGGA,132309.000,3737.2301,N,12703.2670,E,2,19,0.64,32.9,M,19.6,M,,*43
$GPGSA,A,3,193,05,18,15,195,23,24,02,20,194,30,29,1.12,0.64,0.92*34
$GLGSA,A,3,67,83,82,68,76,78,,,,,,,1.12,0.64,0.92*15
$GNRMC,132309.000,A,3737.2301,N,12703.2670,E,0.04,2.03,270521,,,D*7D
$GNVTG,2.03,T,,M,0.04,N,0.08,K,D*2B
$GNGGA,132310.000,3737.2301,N,12703.2670,E,2,18,0.70,32.8,M,19.6,M,,*4E
$GPGSA,A,3,193,05,18,15,195,23,24,02,20,194,30,29,1.22,0.70,1.00*38
$GLGSA,A,3,67,83,82,68,78,,,,,,,,1.22,0.70,1.00*18
$GPGSV,4,1,14,193,76,064,36,20,74,032,39,15,70,279,36,13,68,035,37*4A
$GPGSV,4,2,14,05,58,075,38,18,39,311,32,24,25,185,36,195,25,183,31*40
$GPGSV,4,3,14,29,21,241,24,30,20,047,31,23,15,296,27,194,14,154,23*47
$GPGSV,4,4,14,02,12,157,24,35,,,*4E
$GLGSV,3,1,11,67,51,021,30,83,51,289,19,68,42,298,33,82,42,213,40*65
$GLGSV,3,2,11,77,30,097,18,76,19,042,30,66,12,063,20,78,09,149,29*69
$GLGSV,3,3,11,84,08,337,,81,04,180,,69,02,266,*5D
$GNRMC,132310.000,A,3737.2301,N,12703.2670,E,0.19,2.03,270521,,,D*79
$GNVTG,2.03,T,,M,0.19,N,0.35,K,D*29
$GNGGA,132311.000,3737.2301,N,12703.2670,E,2,19,0.64,32.8,M,19.6,M,,*4B
$GPGSA,A,3,193,05,18,15,195,23,24,02,20,194,30,29,1.12,0.64,0.92*34
$GLGSA,A,3,67,83,82,68,76,78,,,,,,,1.12,0.64,0.92*15
$GNRMC,132311.000,A,3737.2301,N,12703.2670,E,0.02,2.03,270521,,,D*72
$GNVTG,2.03,T,,M,0.02,N,0.03,K,D*26
$GNGGA,132312.000,3737.2301,N,12703.2670,E,2,20,0.64,32.9,M,19.6,M,,*43
$GPGSA,A,3,193,05,18,15,195,23,24,02,20,194,30,29,1.12,0.64,0.92*34
$GLGSA,A,3,67,83,82,68,76,66,78,,,,,,1.12,0.64,0.92*15
$GNRMC,132312.000,A,3737.2301,N,12703.2670,E,0.19,2.03,270521,,,D*7B
$GNVTG,2.03,T,,M,0.19,N,0.36,K,D*2A
$GNGGA,132313.000,3737.2301,N,12703.2670,E,2,20,0.62,32.6,M,19.6,M,,*4B
$GPGSA,A,3,193,05,18,15,195,23,24,02,20,194,30,29,0.92,0.62,0.68*3E
$GLGSA,A,3,67,83,82,68,76,66,78,,,,,,0.92,0.62,0.68*1F
$GNRMC,132313.000,A,3737.2301,N,12703.2670,E,0.02,2.03,270521,,,D*70
$GNVTG,2.03,T,,M,0.02,N,0.04,K,D*21
$GNGGA,132314.000,3737.2301,N,12703.2670,E,2,20,0.64,32.7,M,19.6,M,,*4B
$GPGSA,A,3,193,05,18,15,195,23,24,02,20,194,30,29,1.12,0.64,0.92*34
$GLGSA,A,3,67,83,82,68,76,66,78,,,,,,1.12,0.64,0.92*15
$GNRMC,132314.000,A,3737.2301,N,12703.2670,E,0.28,2.03,270521,,,D*7F
$GNVTG,2.03,T,,M,0.28,N,0.51,K,D*29
$GNGGA,132315.000,3737.2301,N,12703.2670,E,2,20,0.64,32.6,M,19.6,M,,*4B
$GPGSA,A,3,193,05,18,15,195,23,24,02,20,194,30,29,1.12,0.64,0.92*34
$GLGSA,A,3,67,83,82,68,76,66,78,,,,,,1.12,0.64,0.92*15
$GPGSV,4,1,14,193,76,064,36,20,74,032,38,15,70,279,36,13,68,035,37*4B
$GPGSV,4,2,14,05,58,075,38,18,39,311,32,24,25,185,36,195,25,183,30*41
$GPGSV,4,3,14,29,21,241,24,30,20,047,33,23,15,296,28,194,14,154,20*49
$GPGSV,4,4,14,02,12,157,18,36,,,*42
$GLGSV,3,1,11,67,51,021,25,83,51,289,19,68,42,298,32,82,42,213,40*60
$GLGSV,3,2,11,77,30,097,16,76,19,042,29,66,12,063,21,78,09,149,29*6E
$GLGSV,3,3,11,84,08,337,,81,04,180,,69,02,266,*5D
$GNRMC,132315.000,A,3737.2301,N,12703.2670,E,0.16,2.03,270521,,,D*73
$GNVTG,2.03,T,,M,0.16,N,0.30,K,D*23
$GNGGA,132316.000,3737.2302,N,12703.2670,E,2,19,0.64,32.4,M,19.6,M,,*43
$GPGSA,A,3,193,05,18,15,195,23,24,02,20,30,29,13,0.94,0.64,0.68*00
$GLGSA,A,3,67,83,82,68,76,66,78,,,,,,0.94,0.64,0.68*1F
$GNRMC,132316.000,A,3737.2302,N,12703.2670,E,0.09,2.03,270521,,,D*7D
$GNVTG,2.03,T,,M,0.09,N,0.17,K,D*28
$GNGGA,132317.000,3737.2302,N,12703.2669,E,2,18,0.65,32.3,M,19.6,M,,*4D
$GPGSA,A,3,193,05,18,15,195,23,24,02,20,30,29,13,1.14,0.65,0.93*0C
$GLGSA,A,3,67,83,82,68,76,78,,,,,,,1.14,0.65,0.93*13
$GNRMC,132317.000,A,3737.2302,N,12703.2669,E,0.14,2.03,270521,,,D*78
$GNVTG,2.03,T,,M,0.14,N,0.27,K,D*27
$GNGGA,132318.000,3737.2302,N,12703.2669,E,2,19,0.64,32.3,M,19.6,M,,*42
$GPGSA,A,3,193,05,18,15,195,23,24,02,20,30,29,13,0.94,0.64,0.68*00
$GLGSA,A,3,67,83,82,68,76,66,78,,,,,,0.94,0.64,0.68*1F
$GNRMC,132318.000,A,3737.2302,N,12703.2669,E,0.11,2.03,270521,,,D*72
$GNVTG,2.03,T,,M,0.11,N,0.20,K,D*25
$GNGGA,132319.000,3737.2301,N,12703.2670,E,2,19,0.64,32.5,M,19.6,M,,*4E
$GPGSA,A,3,193,05,18,15,195,23,24,02,20,30,29,13,0.94,0.64,0.68*00
$GLGSA,A,3,67,83,82,68,76,66,78,,,,,,0.94,0.64,0.68*1F
$GNRMC,132319.000,A,3737.2301,N,12703.2670,E,0.03,2.03,270521,,,D*7B
$GNVTG,2.03,T,,M,0.03,N,0.06,K,D*22
$GNGGA,132320.000,3737.2301,N,12703.2670,E,2,19,0.63,32.4,M,19.6,M,,*42
$GPGSA,A,3,193,05,18,15,195,23,24,02,20,194,30,29,0.93,0.63,0.68*3E
$GLGSA,A,3,83,82,68,76,66,78,,,,,,,0.93,0.63,0.68*1E
$GPGSV,4,1,14,193,76,064,36,20,74,032,38,15,70,282,36,13,67,035,37*40
$GPGSV,4,2,14,05,58,075,38,18,39,311,32,24,25,185,36,195,25,183,31*40
$GPGSV,4,3,14,29,21,241,20,30,20,047,33,23,15,296,29,194,14,154,17*48
$GPGSV,4,4,14,02,12,157,18,38,,,*4C
$GLGSV,3,1,11,67,51,021,19,83,51,289,19,68,42,298,32,82,42,213,40*6F
$GLGSV,3,2,11,77,30,097,19,76,19,042,31,66,12,063,24,78,09,149,29*6D
$GLGSV,3,3,11,84,08,337,,81,04,180,,69,02,266,*5D
$GNRMC,132320.000,A,3737.2301,N,12703.2670,E,0.06,2.03,270521,,,D*74
$GNVTG,2.03,T,,M,0.06,N,0.11,K,D*21
$GNGGA,132321.000,3737.2301,N,12703.2670,E,2,18,0.65,32.6,M,19.6,M,,*46
$GPGSA,A,3,193,05,18,15,195,23,24,02,20,30,29,13,0.95,0.65,0.68*00
$GLGSA,A,3,83,82,68,76,66,78,,,,,,,0.95,0.65,0.68*1E
$GNRMC,132321.000,A,3737.2301,N,12703.2670,E,0.07,2.03,270521,,,D*74
$GNVTG,2.03,T,,M,0.07,N,0.13,K,D*22
$GNGGA,132322.000,3737.2301,N,12703.2670,E,2,18,0.66,32.5,M,19.6,M,,*45
$GPGSA,A,3,193,05,18,15,195,23,24,02,20,30,29,13,1.15,0.66,0.94*09
$GLGSA,A,3,83,82,68,76,66,78,,,,,,,1.15,0.66,0.94*17
$GNRMC,132322.000,A,3737.2301,N,12703.2670,E,0.04,2.03,270521,,,D*74
$GNVTG,2.03,T,,M,0.04,N,0.08,K,D*2B
$GNGGA,132323.000,3737.2301,N,12703.2670,E,2,20,0.64,32.5,M,19.6,M,,*4D
$GPGSA,A,3,193,05,18,15,195,23,24,02,20,194,30,29,1.12,0.64,0.92*34
$GLGSA,A,3,67,83,82,68,76,66,78,,,,,,1.12,0.64,0.92*15
$GNRMC,132323.000,A,3737.2301,N,12703.2670,E,0.02,2.03,270521,,,D*73
$GNVTG,2.03,T,,M,0.02,N,0.03,K,D*26
$GNGGA,132324.000,3737.2301,N,12703.2670,E,2,18,0.63,32.5,M,19.6,M,,*46
$GPGSA,A,3,193,05,18,15,195,23,24,02,20,194,30,29,0.93,0.63,0.68*3E
$GLGSA,A,3,83,82,68,76,78,,,,,,,,0.93,0.63,0.68*1E
$GNRMC,132324.000,A,3737.2301,N,12703.2670,E,0.03,2.03,270521,,,D*75
$GNVTG,2.03,T,,M,0.03,N,0.06,K,D*22
$GNGGA,132325.000,3737.2301,N,12703.2670,E,2,19,0.61,32.5,M,19.6,M,,*44
$GPGSA,A,3,193,05,18,15,195,23,24,02,20,194,30,29,1.07,0.61,0.88*3E
$GLGSA,A,3,83,82,68,76,66,78,,,,,,,1.07,0.61,0.88*1E
$GPGSV,4,1,14,193,76,064,36,20,74,036,39,15,70,282,36,13,67,035,37*45
$GPGSV,4,2,14,05,58,075,37,18,39,310,33,24,25,185,36,195,25,183,31*4F
$GPGSV,4,3,14,29,21,241,15,30,20,047,33,23,15,296,29,194,14,154,24*4E
$GPGSV,4,4,14,02,12,157,22,43,,,*49
$GLGSV,3,1,11,67,51,021,21,83,51,289,20,68,42,298,32,82,42,213,40*6E
$GLGSV,3,2,11,77,30,097,18,76,19,042,31,66,12,063,22,78,09,149,31*63
$GLGSV,3,3,11,84,08,337,,81,04,180,,69,02,266,*5D
$GNRMC,132325.000,A,3737.2301,N,12703.2670,E,0.20,2.03,270521,,,D*75
$GNVTG,2.03,T,,M,0.20,N,0.38,K,D*2E
$GNGGA,132326.000,3737.2301,N,12703.2670,E,2,19,0.61,32.7,M,19.6,M,,*45
$GPGSA,A,3,193,05,18,15,195,23,24,02,20,194,30,29,1.07,0.61,0.88*3E
$GLGSA,A,3,83,82,68,76,66,78,,,,,,,1.07,0.61,0.88*1E
$GNRMC,132326.000,A,3737.2301,N,12703.2670,E,0.07,2.03,270521,,,D*73
$GNVTG,2.03,T,,M,0.07,N,0.13,K,D*22
$GNGGA,132327.000,3737.2301,N,12703.2670,E,2,17,0.71,32.6,M,19.6,M,,*4A
$GPGSA,A,3,193,05,18,15,195,24,02,20,194,30,13,,1.02,0.71,0.73*36
$GLGSA,A,3,83,82,68,76,66,78,,,,,,,1.02,0.71,0.73*1E
$GNRMC,132327.000,A,3737.2301,N,12703.2670,E,0.09,2.03,270521,,,D*7C
$GNVTG,2.03,T,,M,0.09,N,0.17,K,D*28
$GNGGA,132328.000,3737.2301,N,12703.2670,E,2,17,0.66,32.7,M,19.6,M,,*42
$GPGSA,A,3,193,05,18,15,195,23,24,02,20,30,13,,1.13,0.66,0.91*01
$GLGSA,A,3,83,82,68,76,66,78,,,,,,,1.13,0.66,0.91*14
$GNRMC,132328.000,A,3737.2301,N,12703.2670,E,0.08,2.03,270521,,,D*72
$GNVTG,2.03,T,,M,0.08,N,0.14,K,D*2A
$GNGGA,132329.000,3737.2300,N,12703.2670,E,2,16,0.73,32.8,M,19.6,M,,*48
$GPGSA,A,3,193,05,18,15,195,24,02,20,30,13,,,1.04,0.73,0.74*09
$GLGSA,A,3,83,82,68,76,66,78,,,,,,,1.04,0.73,0.74*1D
$GNRMC,132329.000,A,3737.2300,N,12703.2670,E,0.04,2.03,270521,,,D*7E
$GNVTG,2.03,T,,M,0.04,N,0.07,K,D*24
$GNGGA,132330.000,3737.2300,N,12703.2670,E,2,17,0.68,32.8,M,19.6,M,,*4B
$GPGSA,A,3,193,05,18,15,195,24,02,20,30,29,13,,0.98,0.68,0.71*09
$GLGSA,A,3,83,82,68,76,66,78,,,,,,,0.98,0.68,0.71*16
$GPGSV,4,1,14,193,76,064,36,20,74,036,39,15,70,282,36,13,67,035,36*44
$GPGSV,4,2,14,05,58,075,36,18,39,310,33,24,26,185,34,195,25,183,30*4E
$GPGSV,4,3,14,29,21,241,13,30,20,047,31,23,15,297,27,194,14,154,16*44
$GPGSV,4,4,14,02,12,157,19,43,,,*41
$GLGSV,3,1,11,67,51,021,,83,51,289,19,68,42,298,34,82,42,213,40*61
$GLGSV,3,2,11,77,30,097,17,76,19,042,34,66,12,063,19,78,09,149,32*62
$GLGSV,3,3,11,84,08,337,,81,04,180,,69,02,266,*5D
$GNRMC,132330.000,A,3737.2300,N,12703.2670,E,0.03,2.03,270521,,,D*71
$GNVTG,2.03,T,,M,0.03,N,0.06,K,D*22
$GNGGA,132331.000,3737.2300,N,12703.2670,E,2,18,0.63,32.8,M,19.6,M,,*4E
$GPGSA,A,3,193,05,18,15,195,23,24,02,20,30,29,13,1.09,0.63,0.88*0C
$GLGSA,A,3,83,82,68,76,66,78,,,,,,,1.09,0.63,0.88*12
$GNRMC,132331.000,A,3737.2300,N,12703.2670,E,0.01,2.03,270521,,,D*72
$GNVTG,2.03,T,,M,0.01,N,0.02,K,D*24
$GNGGA,132332.000,3737.2300,N,12703.2670,E,2,17,0.71,32.8,M,19.6,M,,*41
$GPGSA,A,3,193,05,18,15,195,24,02,20,30,29,13,,1.23,0.71,1.00*07
$GLGSA,A,3,83,82,68,76,66,78,,,,,,,1.23,0.71,1.00*18
$GNRMC,132332.000,A,3737.2300,N,12703.2670,E,0.02,2.03,270521,,,D*72
$GNVTG,2.03,T,,M,0.02,N,0.04,K,D*21
$GNGGA,132333.000,3737.2300,N,12703.2670,E,2,18,0.69,32.8,M,19.6,M,,*46
$GPGSA,A,3,193,05,18,15,195,24,02,20,194,30,29,13,1.22,0.69,1.00*33
$GLGSA,A,3,83,82,68,76,66,78,,,,,,,1.22,0.69,1.00*10
$GNRMC,132333.000,A,3737.2300,N,12703.2670,E,0.05,2.03,270521,,,D*74
$GNVTG,2.03,T,,M,0.05,N,0.10,K,D*23
$GNGGA,132334.000,3737.2300,N,12703.2670,E,2,20,0.59,32.8,M,19.6,M,,*49
$GPGSA,A,3,193,05,18,15,195,23,24,02,20,194,30,29,0.88,0.59,0.66*33
$GLGSA,A,3,67,83,82,68,76,66,78,,,,,,0.88,0.59,0.66*12
$GNRMC,132334.000,A,3737.2300,N,12703.2670,E,0.03,2.03,270521,,,D*75
$GNVTG,2.03,T,,M,0.03,N,0.06,K,D*22
$GNGGA,132335.000,3737.2300,N,12703.2670,E,2,20,0.59,32.7,M,19.6,M,,*47
$GPGSA,A,3,193,05,18,15,195,23,24,02,20,194,30,29,0.88,0.59,0.66*33
$GLGSA,A,3,67,83,82,68,76,66,78,,,,,,0.88,0.59,0.66*12
$GPGSV,4,1,14,193,76,064,36,20,74,036,39,15,70,282,34,13,67,035,37*47
$GPGSV,4,2,14,05,58,075,36,18,39,310,33,24,26,185,35,195,25,183,33*4C
$GPGSV,4,3,14,29,21,240,19,30,19,046,29,23,15,297,27,194,14,154,19*42
$GPGSV,4,4,14,02,12,157,14,43,,,26*48
$GLGSV,3,1,11,67,51,021,26,83,51,289,18,68,42,298,34,82,42,213,40*64
$GLGSV,3,2,11,77,30,097,17,76,19,042,33,66,12,063,22,78,09,149,31*6E
$GLGSV,3,3,11,84,08,337,,81,04,180,,69,02,266,*5D
$GNRMC,132335.000,A,3737.2300,N,12703.2670,E,0.06,2.03,270521,,,D*71
$GNVTG,2.03,T,,M,0.06,N,0.12,K,D*22
$GNGGA,132336.000,3737.2300,N,12703.2669,E,2,20,0.59,32.7,M,19.6,M,,*4C
$GPGSA,A,3,193,05,18,15,195,23,24,02,20,194,30,29,0.89,0.59,0.66*32
$GLGSA,A,3,67,83,82,68,76,66,78,,,,,,0.89,0.59,0.66*13
$GNRMC,132336.000,A,3737.2300,N,12703.2669,E,0.01,2.03,270521,,,D*7D
$GNVTG,2.03,T,,M,0.01,N,0.03,K,D*25
$GNGGA,132337.000,3737.2300,N,12703.2669,E,2,18,0.66,32.7,M,19.6,M,,*4A
$GPGSA,A,3,193,05,18,15,195,23,24,20,194,30,29,13,1.15,0.66,0.94*37
$GLGSA,A,3,83,82,68,76,66,78,,,,,,,1.15,0.66,0.94*17
$GNRMC,132337.000,A,3737.2300,N,12703.2669,E,0.03,2.03,270521,,,D*7E
$GNVTG,2.03,T,,M,0.03,N,0.05,K,D*21
$GNGGA,132338.000,3737.2301,N,12703.2669,E,2,18,0.66,32.6,M,19.6,M,,*45
$GPGSA,A,3,193,05,18,15,195,23,24,20,194,30,29,13,1.15,0.66,0.94*37
$GLGSA,A,3,83,82,68,76,66,78,,,,,,,1.15,0.66,0.94*17
$GNRMC,132338.000,A,3737.2301,N,12703.2669,E,0.21,2.03,270521,,,D*70
$GNVTG,2.03,T,,M,0.21,N,0.39,K,D*2E
$GNGGA,132339.000,3737.2300,N,12703.2670,E,2,19,0.65,32.8,M,19.6,M,,*41
$GPGSA,A,3,193,05,18,15,195,23,24,20,194,30,29,13,1.14,0.65,0.94*35
$GLGSA,A,3,67,83,82,68,76,66,78,,,,,,1.14,0.65,0.94*14
$GNRMC,132339.000,A,3737.2300,N,12703.2670,E,0.01,2.03,270521,,,D*7A
$GNVTG,2.03,T,,M,0.01,N,0.01,K,D*27
$GNGGA,132340.000,3737.2300,N,12703.2670,E,2,19,0.65,32.8,M,19.6,M,,*4F
$GPGSA,A,3,193,05,18,15,195,23,24,20,194,30,29,13,1.14,0.65,0.94*35
$GLGSA,A,3,67,83,82,68,76,66,78,,,,,,1.14,0.65,0.94*14
$GPGSV,4,1,14,193,76,064,36,20,74,036,39,15,70,282,34,13,67,035,37*47
$GPGSV,4,2,14,05,58,075,36,18,39,310,33,24,26,185,35,195,25,183,34*4B
$GPGSV,4,3,14,29,21,240,20,30,19,046,27,23,15,297,26,194,14,154,20*4D
$GPGSV,4,4,14,02,12,157,,45,,,*4F
$GLGSV,3,1,11,67,51,021,29,83,51,289,18,68,42,298,33,82,42,213,38*63
$GLGSV,3,2,11,77,30,097,17,76,19,042,32,66,12,063,19,78,09,149,29*6E
$GLGSV,3,3,11,84,08,337,,81,04,180,,69,02,266,*5D
$GNRMC,132340.000,A,3737.2300,N,12703.2670,E,0.01,2.03,270521,,,D*74
$GNVTG,2.03,T,,M,0.01,N,0.01,K,D*27
$GNGGA,132341.000,3737.2300,N,12703.2669,E,2,19,0.65,32.8,M,19.6,M,,*46
$GPGSA,A,3,193,05,18,15,195,23,24,20,194,30,29,13,1.14,0.65,0.94*35
$GLGSA,A,3,67,83,82,68,76,66,78,,,,,,1.14,0.65,0.94*14
$GNRMC,132341.000,A,3737.2300,N,12703.2669,E,0.01,2.03,270521,,,D*7D
$GNVTG,2.03,T,,M,0.01,N,0.02,K,D*24
$GNGGA,132342.000,3737.2300,N,12703.2669,E,2,19,0.65,32.8,M,19.6,M,,*45
$GPGSA,A,3,193,05,18,15,195,23,24,20,194,30,29,13,1.14,0.65,0.94*35
$GLGSA,A,3,67,83,82,68,76,66,78,,,,,,1.14,0.65,0.94*14
$GNRMC,132342.000,A,3737.2300,N,12703.2669,E,0.02,2.03,270521,,,D*7D
$GNVTG,2.03,T,,M,0.02,N,0.03,K,D*26
$GNGGA,132343.000,3737.2300,N,12703.2669,E,2,19,0.64,32.8,M,19.6,M,,*45
$GPGSA,A,3,193,05,18,15,195,23,24,20,194,30,29,13,0.94,0.64,0.68*3E
$GLGSA,A,3,67,83,82,68,76,66,78,,,,,,0.94,0.64,0.68*1F
$GNRMC,132343.000,A,3737.2300,N,12703.2669,E,0.01,2.03,270521,,,D*7F
$GNVTG,2.03,T,,M,0.01,N,0.03,K,D*25
$GNGGA,132344.000,3737.2300,N,12703.2669,E,2,19,0.64,32.8,M,19.6,M,,*42
$GPGSA,A,3,193,05,18,15,195,23,24,20,194,30,29,13,0.94,0.64,0.68*3E
$GLGSA,A,3,67,83,82,68,76,66,78,,,,,,0.94,0.64,0.68*1F
$GNRMC,132344.000,A,3737.2300,N,12703.2669,E,0.09,2.03,270521,,,D*70
$GNVTG,2.03,T,,M,0.09,N,0.16,K,D*29
$GNGGA,132345.000,3737.2300,N,12703.2670,E,2,19,0.61,32.9,M,19.6,M,,*4F
$GPGSA,A,3,193,05,18,15,195,23,24,02,20,30,29,13,0.90,0.61,0.66*0F
$GLGSA,A,3,67,83,82,68,76,66,78,,,,,,0.90,0.61,0.66*10
$GPGSV,4,1,14,193,76,064,36,20,74,036,39,15,70,282,35,13,67,035,37*46
$GPGSV,4,2,14,05,58,075,35,18,39,310,33,24,26,185,35,195,25,183,34*48
$GPGSV,4,3,14,29,21,240,20,30,19,046,27,23,15,297,26,194,14,154,15*4B
$GPGSV,4,4,14,02,12,157,19,46,,,*44
$GLGSV,3,1,11,67,51,021,29,83,51,289,19,68,42,298,34,82,42,213,38*65
$GLGSV,3,2,11,77,30,097,15,76,19,042,29,66,12,063,16,78,09,149,31*60
$GLGSV,3,3,11,84,08,337,,81,04,180,,69,02,266,*5D
$GNRMC,132345.000,A,3737.2300,N,12703.2670,E,0.06,2.03,270521,,,D*76
$GNVTG,2.03,T,,M,0.06,N,0.11,K,D*21
$GNGGA,132346.000,3737.2300,N,12703.2669,E,2,19,0.64,32.9,M,19.6,M,,*41
$GPGSA,A,3,193,05,18,15,195,23,24,02,20,30,29,13,0.94,0.64,0.68*00
$GLGSA,A,3,67,83,82,68,76,66,78,,,,,,0.94,0.64,0.68*1F
$GNRMC,132346.000,A,3737.2300,N,12703.2669,E,0.05,2.03,270521,,,D*7E
$GNVTG,2.03,T,,M,0.05,N,0.10,K,D*23
$GNGGA,132347.000,3737.2299,N,12703.2670,E,2,19,0.62,33.0,M,19.6,M,,*47
$GPGSA,A,3,193,05,18,15,195,23,24,02,20,30,29,13,1.08,0.62,0.88*0C
$GLGSA,A,3,67,83,82,68,76,66,78,,,,,,1.08,0.62,0.88*13
$GNRMC,132347.000,A,3737.2299,N,12703.2670,E,0.24,2.03,270521,,,D*75
$GNVTG,2.03,T,,M,0.24,N,0.45,K,D*20
$GNGGA,132348.000,3737.2300,N,12703.2670,E,2,19,0.62,32.9,M,19.6,M,,*41
$GPGSA,A,3,193,05,18,15,195,23,24,02,20,30,29,13,1.08,0.62,0.88*0C
$GLGSA,A,3,67,83,82,68,76,66,78,,,,,,1.08,0.62,0.88*13
$GNRMC,132348.000,A,3737.2300,N,12703.2670,E,0.18,2.03,270521,,,D*74
$GNVTG,2.03,T,,M,0.18,N,0.33,K,D*2E
$GNGGA,132349.000,3737.2300,N,12703.2669,E,2,19,0.65,32.7,M,19.6,M,,*41
$GPGSA,A,3,193,05,18,15,195,23,24,02,20,30,29,13,1.14,0.65,0.93*0C
$GLGSA,A,3,67,83,82,68,76,66,78,,,,,,1.14,0.65,0.93*13
$GNRMC,132349.000,A,3737.2300,N,12703.2669,E,0.05,2.03,270521,,,D*71
$GNVTG,2.03,T,,M,0.05,N,0.10,K,D*23
$GNGGA,132350.000,3737.2300,N,12703.2669,E,2,20,0.59,32.6,M,19.6,M,,*4D
$GPGSA,A,3,193,05,18,15,195,23,24,02,20,194,30,29,0.89,0.59,0.66*32
$GLGSA,A,3,67,83,82,68,76,66,78,,,,,,0.89,0.59,0.66*13
$GPGSV,4,1,14,193,76,064,36,20,74,036,39,15,70,282,35,13,67,035,36*47
$GPGSV,4,2,14,05,58,075,35,18,39,310,31,24,26,185,36,195,25,183,34*49
$GPGSV,4,3,14,29,21,240,19,30,19,046,28,23,15,297,28,194,14,154,20*46
$GPGSV,4,4,14,02,12,157,20,47,,,*4F
$GLGSV,3,1,11,67,51,021,29,83,51,289,19,68,42,298,36,82,42,213,38*67
$GLGSV,3,2,11,77,30,097,16,76,19,042,27,66,12,063,16,78,09,149,31*6D
$GLGSV,3,3,11,84,08,337,,81,04,180,,69,02,266,*5D
$GNRMC,132350.000,A,3737.2300,N,12703.2669,E,0.02,2.03,270521,,,D*7E
$GNVTG,2.03,T,,M,0.02,N,0.04,K,D*21
$GNGGA,132351.000,3737.2300,N,12703.2669,E,2,20,0.61,32.6,M,19.6,M,,*47
$GPGSA,A,3,193,05,18,15,195,23,24,02,20,194,30,29,1.06,0.61,0.87*30
$GLGSA,A,3,67,83,82,68,76,66,78,,,,,,1.06,0.61,0.87*11
$GNRMC,132351.000,A,3737.2300,N,12703.2669,E,0.02,2.03,270521,,,D*7F
$GNVTG,2.03,T,,M,0.02,N,0.03,K,D*26
$GNGGA,132352.000,3737.2301,N,12703.2669,E,2,19,0.62,32.5,M,19.6,M,,*4F
$GPGSA,A,3,193,05,18,15,195,23,24,02,20,194,30,29,0.92,0.62,0.68*3E
$GLGSA,A,3,67,83,82,68,76,78,,,,,,,0.92,0.62,0.68*1F
$GNRMC,132352.000,A,3737.2301,N,12703.2669,E,0.13,2.03,270521,,,D*7D
$GNVTG,2.03,T,,M,0.13,N,0.23,K,D*24
$GNGGA,132353.000,3737.2301,N,12703.2669,E,2,19,0.64,32.6,M,19.6,M,,*4B
$GPGSA,A,3,193,05,18,15,195,23,24,02,20,194,30,29,1.12,0.64,0.92*34
$GLGSA,A,3,67,83,82,68,76,78,,,,,,,1.12,0.64,0.92*15
$GNRMC,132353.000,A,3737.2301,N,12703.2669,E,0.10,2.03,270521,,,D*7F
$GNVTG,2.03,T,,M,0.10,N,0.18,K,D*2F
$GNGGA,132354.000,3737.2300,N,12703.2669,E,2,19,0.64,32.7,M,19.6,M,,*4C
$GPGSA,A,3,193,05,18,15,195,23,24,02,20,194,30,29,1.12,0.64,0.92*34
$GLGSA,A,3,67,83,82,68,76,78,,,,,,,1.12,0.64,0.92*15
$GNRMC,132354.000,A,3737.2300,N,12703.2669,E,0.09,2.03,270521,,,D*71
$GNVTG,2.03,T,,M,0.09,N,0.17,K,D*28
$GNGGA,132355.000,3737.2300,N,12703.2669,E,2,19,0.64,32.8,M,19.6,M,,*42
$GPGSA,A,3,193,05,18,15,195,23,24,02,20,194,30,29,1.12,0.64,0.92*34
$GLGSA,A,3,67,83,82,68,76,78,,,,,,,1.12,0.64,0.92*15
$GPGSV,4,1,14,193,76,064,36,20,74,036,39,15,70,282,35,13,67,035,36*47
$GPGSV,4,2,14,05,58,075,36,18,39,310,33,24,26,185,36,195,25,183,34*48
$GPGSV,4,3,14,29,21,240,20,30,19,046,27,23,15,297,28,194,14,154,25*46
$GPGSV,4,4,14,02,12,157,20,49,,,*41
$GLGSV,3,1,11,67,51,021,28,83,51,289,20,68,42,298,35,82,42,213,39*6E
$GLGSV,3,2,11,77,30,097,19,76,19,042,25,66,12,063,13,78,09,149,32*66
$GLGSV,3,3,11,84,08,337,,81,04,180,,69,02,266,*5D
$GNRMC,132355.000,A,3737.2300,N,12703.2669,E,0.02,2.03,270521,,,D*7B
$GNVTG,2.03,T,,M,0.02,N,0.03,K,D*26
$GNGGA,132356.000,3737.2300,N,12703.2669,E,2,18,0.65,32.7,M,19.6,M,,*4E
$GPGSA,A,3,193,05,18,15,195,23,24,02,20,30,29,13,1.14,0.65,0.93*0C
$GLGSA,A,3,67,83,82,68,76,78,,,,,,,1.14,0.65,0.93*13
$GNRMC,132356.000,A,3737.2300,N,12703.2669,E,0.01,2.03,270521,,,D*7B
$GNVTG,2.03,T,,M,0.01,N,0.02,K,D*24
$GNGGA,132357.000,3737.2300,N,12703.2669,E,2,19,0.64,32.7,M,19.6,M,,*4F
$GPGSA,A,3,193,05,18,15,195,23,24,02,20,194,30,29,1.12,0.64,0.92*34
$GLGSA,A,3,67,83,82,68,76,78,,,,,,,1.12,0.64,0.92*15
$GNRMC,132357.000,A,3737.2300,N,12703.2669,E,0.02,2.03,270521,,,D*79
$GNVTG,2.03,T,,M,0.02,N,0.03,K,D*26
$GNGGA,132358.000,3737.2300,N,12703.2669,E,2,19,0.64,32.8,M,19.6,M,,*4F
$GPGSA,A,3,193,05,18,15,195,23,24,02,20,194,30,29,1.12,0.64,0.92*34
$GLGSA,A,3,67,83,82,68,76,78,,,,,,,1.12,0.64,0.92*15
$GNRMC,132358.000,A,3737.2300,N,12703.2669,E,0.01,2.03,270521,,,D*75
$GNVTG,2.03,T,,M,0.01,N,0.02,K,D*24
$GNGGA,132359.000,3737.2300,N,12703.2669,E,2,19,0.64,32.8,M,19.6,M,,*4E
$GPGSA,A,3,193,05,18,15,195,23,24,02,20,194,30,29,1.12,0.64,0.92*34
$GLGSA,A,3,67,83,82,68,76,78,,,,,,,1.12,0.64,0.92*15
$GNRMC,132359.000,A,3737.2300,N,12703.2669,E,0.01,2.03,270521,,,D*74
$GNVTG,2.03,T,,M,0.01,N,0.02,K,D*24
$GNGGA,132400.000,3737.2300,N,12703.2669,E,2,19,0.64,32.8,M,19.6,M,,*45
$GPGSA,A,3,193,05,18,15,195,23,24,02,20,194,30,29,1.12,0.64,0.92*34
$GLGSA,A,3,67,83,82,68,76,78,,,,,,,1.12,0.64,0.92*15
$GPGSV,4,1,14,193,76,064,36,20,74,036,39,15,70,282,36,13,67,035,37*45
$GPGSV,4,2,14,05,58,075,36,18,39,310,34,24,26,185,36,195,25,183,34*4F
$GPGSV,4,3,14,29,21,240,18,30,19,046,30,23,15,297,26,194,14,154,26*46
$GPGSV,4,4,14,02,12,157,23,49,,,*42
$GLGSV,3,1,11,67,51,021,29,83,51,289,20,68,42,298,35,82,42,213,40*61
$GLGSV,3,2,11,77,30,097,17,76,19,042,28,66,12,063,,78,09,149,32*67
